     2.11           OBSERVATION DATA    G                   RINEX VERSION / TYPE
SPIDER V4,0,0,3554                      2015 03 18 00:33    PGM / RUN BY / DATE 
EASA                                                        MARKER NAME         
EASA                                                        MARKER NUMBER       
                                                            OBSERVER / AGENCY   
496549              LEICA GRX1200+GNSS  8.20/4.007          REC # / TYPE / VERS 
10321008            LEIAR25         NONE                    ANT # / TYPE        
  5282957.1227   142380.7781  3561159.3736                  APPROX POSITION XYZ 
        0.0000        0.0000        0.0000                  ANTENNA: DELTA H/E/N
     1     1                                                WAVELENGTH FACT L1/2
     4    C1    L1    P2    L2                              # / TYPES OF OBSERV 
    30.000                                                  INTERVAL            
  2015    02    17    00    00    0.0000000     GPS         TIME OF FIRST OBS   
  2015    02    17    06    00   30.0000000     GPS         TIME OF LAST OBS    
    16                                                      LEAP SECONDS        
    17                                                      # OF SATELLITES     
   G 1   341   340   340   340                              PRN / # OF OBS      
   G 3   216   216   216   216                              PRN / # OF OBS      
   G 4   495   495   495   495                              PRN / # OF OBS      
   G11   403   402   402   402                              PRN / # OF OBS      
   G14   311   311   311   311                              PRN / # OF OBS      
   G16   585   585   585   585                              PRN / # OF OBS      
   G18   504   504   504   504                              PRN / # OF OBS      
   G19   605   605   605   605                              PRN / # OF OBS      
   G21   380   380   380   380                              PRN / # OF OBS      
   G22   634   634   634   634                              PRN / # OF OBS      
   G23     9     9     9     9                              PRN / # OF OBS      
   G25    71    71    71    71                              PRN / # OF OBS      
   G27   722   722   722   722                              PRN / # OF OBS      
   G28   162   162   162   162                              PRN / # OF OBS      
   G29   114   114   114   114                              PRN / # OF OBS      
   G31   197   197   197   197                              PRN / # OF OBS      
   G32   384   384   384   384                              PRN / # OF OBS      
BIT 2 OF LLI FLAGS DATA COLLECTED UNDER A/S CONDITION       COMMENT             
SNR is mapped to RINEX snr flag value [2-9]                 COMMENT             
Lx:     = 25dBHz -> 1; 26-27dBHz -> 2; 28-31dBHz -> 3       COMMENT             
       32-35dBHz -> 4; 36-38dBHz -> 5; 39-41dBHz -> 6       COMMENT             
       42-44dBHz -> 7; 45-48dBHz -> 8; >=49dBHz -> 9        COMMENT             
                                                            END OF HEADER       
 15 02 17 00 00  0.0000000  0  7G16G18G21G25G27G29G31
  22924773.560   120470510.79208  22924770.540    93873111.46646
  23800970.360   125074984.65408  23800969.280    97461035.37945
  20974097.500   110219630.18608  20974094.100    85885414.28148
  23597512.300   124005753.36808  23597513.260    96627858.90146
  23783761.140   124984533.48108  23783762.600    97390554.48046
  22966431.220   120689402.34509  22966429.240    94043678.71448
  21425252.640   112590452.52509  21425249.980    87732804.54248
 15 02 17 00 00 30.0000000  0  7G16G18G21G25G27G29G31
  22909067.080   120387973.33408  22909064.060    93808796.58946
  23787202.260   125002632.52408  23787201.080    97404657.21545
  20975544.880   110227235.87208  20975541.420    85891340.79648
  23613409.040   124089291.50808  23613410.020    96692953.51746
  23770399.280   124914316.76908  23770400.660    97335840.45346
  22980352.880   120762560.87309  22980350.860    94100685.32948
  21436931.320   112651823.85609  21436928.560    87780626.30548
 15 02 17 00 01  0.0000000  0  7G16G18G21G25G27G29G31
  22893376.340   120305517.99108  22893373.400    93744545.67246
  23773446.360   124930345.19708  23773445.120    97348329.56345
  20977078.120   110235292.77208  20977074.580    85897618.90948
  23629347.220   124173047.53008  23629348.320    96758217.91546
  23757062.000   124844229.46208  23757063.340    97281227.05246
  22994279.280   120835744.20209  22994277.220    94157711.27347
  21448693.520   112713634.05409  21448690.760    87828790.04448
 15 02 17 00 01 30.0000000  0  7G16G18G21G25G27G29G31
  22877700.780   120223142.25508  22877697.840    93680356.81546
  23759702.660   124858121.70808  23759701.280    97292051.61945
  20978696.280   110243795.87909  20978692.640    85904244.71748
  23645325.980   124257016.66708  23645327.080    96823648.38246
  23743748.640   124774267.74808  23743749.880    97226711.48446
  23008209.480   120908947.66809  23008207.400    94214752.91747
  21460537.960   112775876.87709  21460535.300    87877290.88648
 15 02 17 00 02  0.0000000  0  7G16G18G21G25G27G29G31
  22862041.520   120140851.95209  22862038.500    93616234.51146
  23745972.380   124785969.40908  23745971.140    97235829.18645
  20980399.920   110252748.32009  20980396.200    85911220.65648
  23661346.000   124341202.51608  23661347.060    96889247.71546
  23730460.020   124704435.76508  23730461.260    97172297.00146
  23022144.180   120982174.85909  23022142.140    94271813.03848
  21472465.020   112838554.06609  21472462.480    87926130.13448
 15 02 17 00 02 30.0000000  0  7G16G18G21G25G27G29G31
  22846398.060   120058644.47108  22846395.040    93552176.74446
  23732255.340   124713886.33208  23732254.000    97179660.66945
  20982188.280   110262146.17108  20982184.500    85918543.66148
  23677406.400   124425600.26708  23677407.420    96955012.17246
  23717195.340   124634729.37208  23717196.560    97117980.38046
  23036082.520   121055421.45309  23036080.500    94328888.27247
  21484473.600   112901659.32009  21484471.180    87975302.83548
 15 02 17 00 03  0.0000000  0  7G16G18G21G25G27G29G31
  22830770.840   119976523.20108  22830767.980    93488186.17546
  23718552.280   124641876.82508  23718551.060    97123549.51545
  20984061.240   110271988.98608  20984057.540    85926213.38948
  23693507.320   124510210.84708  23693508.300    97020942.45746
  23703954.820   124565150.14908  23703956.020    97063762.85747
  23050024.740   121128688.19809  23050022.700    94385979.22447
  21496563.720   112965192.60109  21496561.340    88024809.10648
 15 02 17 00 03 30.0000000  0  7G16G18G21G25G27G29G31
  22815161.080   119894493.47908  22815158.140    93424266.92246
  23704864.480   124569947.45508  23704863.240    97067500.75145
  20986019.500   110282280.17508  20986015.880    85934232.51148
  23709649.300   124595037.17808  23709650.260    97087040.86546
  23690739.220   124495701.65508  23690740.380    97009647.19646
  23063971.440   121201978.39109  23063969.420    94443088.43847
  21508735.580   113029155.29809  21508733.240    88074650.04848
 15 02 17 00 04  0.0000000  0  7G16G18G21G25G27G29G31
  22799567.680   119812550.30008  22799564.920    93360415.12547
  23691191.200   124498094.19608  23691189.920    97011511.30745
  20988061.740   110293012.32609  20988058.100    85942595.23548
  23725830.880   124680071.80508  23725831.900    97153301.58346
  23677547.220   124426377.01408  23677548.280    96955628.02646
  23077921.240   121275284.88309  23077919.200    94500210.34747
  21520987.340   113093537.73109  21520984.900    88124817.89249
 15 02 17 00 04 30.0000000  0  7G16G18G21G25G27G29G31
  22783991.900   119730699.47908  22783989.200    93296635.28246
  23677533.800   124426324.14308  23677532.540    96955586.71645
  20990188.580   110304188.79609  20990184.860    85951304.18448
  23742052.780   124765318.57008  23742053.840    97219727.58946
  23664379.560   124357180.72808  23664380.680    96901708.89147
  23091874.860   121348611.37209  23091872.820    94557347.84547
  21533319.540   113158342.57809  21533317.060    88175314.85548
 15 02 17 00 05  0.0000000  0  7G16G18G21G25G27G29G31
  22768433.920   119648942.16208  22768431.220    93232928.30146
  23663892.500   124354639.14508  23663891.120    96899728.40945
  20992399.600   110315807.76909  20992395.820    85960357.94048
  23758314.760   124850775.99908  23758315.920    97286317.76246
  23651236.180   124288112.03108  23651237.240    96847889.19146
  23105832.080   121421956.89809  23105830.040    94614500.16447
  21545731.600   113223567.15909  21545729.140    88226138.99948
 15 02 17 00 05 30.0000000  0  7G16G18G21G25G27G29G31
  22752893.840   119567278.75308  22752891.260    93169294.50247
  23650267.760   124283040.94808  23650266.440    96843937.72046
  20994694.460   110327867.33109  20994690.660    85969755.01048
  23774616.540   124936442.27608  23774617.600    97353070.69546
  23638116.780   124219169.69908  23638117.860    96794167.93047
  23119792.660   121495320.03609  23119790.600    94671666.21747
  21558222.760   113289207.80209  21558220.380    88277287.34748
 15 02 17 00 06  0.0000000  0  7G16G18G21G25G27G29G31
  22737372.040   119485710.87308  22737369.400    93105735.14247
  23636659.940   124211531.72608  23636658.600    96788216.36546
  20997072.840   110340366.16808  20997069.100    85979494.37148
  23790957.800   125022316.10308  23790958.840    97419985.33946
  23625021.320   124150353.04908  23625022.360    96740544.62247
  23133756.320   121568699.53809  23133754.340    94728845.01147
  21570792.480   113355261.75809  21570790.300    88328757.77649
 15 02 17 00 06 30.0000000  0  7G16G18G21G25G27G29G31
  22721868.580   119404239.85708  22721865.880    93042251.25147
  23623069.500   124140114.19908  23623067.940    96732566.44245
  20999534.520   110353302.79608  20999530.820    85989574.86548
  23807338.420   125108396.78708  23807339.440    97487061.17246
  23611949.820   124081662.22908  23611950.880    96687019.35547
  23147723.080   121642095.30509  23147721.140    94786036.47847
  21583440.440   113421727.05309  21583438.420    88380548.80448
 15 02 17 00 07  0.0000000  0  7G16G18G21G25G27G29G31
  22706384.320   119322869.13209  22706381.560    92978845.50647
  23609497.340   124068792.96008  23609496.040    96676991.57645
  21002079.720   110366678.26708  21002076.080    85999997.32848
  23823758.620   125194685.20508  23823759.580    97554298.88046
  23598902.620   124013098.68308  23598903.660    96633593.27447
  23161693.080   121715508.09309  23161691.140    94843241.22147
  21596166.540   113488602.96009  21596164.640    88432659.84148
 15 02 17 00 07 30.0000000  0  7G16G18G21G25G27G29G31
  22690919.380   119241599.97709  22690916.500    92915518.92046
  23595943.880   123997569.60408  23595942.300    96621492.92245
  21004708.260   110380491.31208  21004704.600    86010760.74448
  23840218.040   125281180.04408  23840219.220    97621697.40446
  23585879.520   123944661.73308  23585880.440    96580265.83247
  23175666.120   121788937.02409  23175664.240    94900458.52547
  21608970.200   113555886.28209  21608968.280    88485088.36148
 15 02 17 00 08  0.0000000  0  7G16G18G21G25G27G29G31
  22675474.140   119160433.94709  22675470.900    92852272.65347
  23582409.620   123926447.17408  23582408.160    96566072.93345
  21007419.780   110394740.61108  21007416.180    86021864.10048
  23856716.600   125367880.45608  23856717.840    97689256.11746
  23572880.500   123876351.23608  23572881.380    96527036.90047
  23189642.180   121862381.65209  23189640.300    94957688.07947
  21621850.940   113623574.70509  21621849.040    88537832.55948
 15 02 17 00 08 30.0000000  0  7G16G18G21G25G27G29G31
  22660048.540   119079371.27309  22660045.160    92789106.94147
  23568894.740   123855426.70408  23568893.300    96510732.38545
  21010213.740   110409423.40908  21010210.260    86033305.25548
  23873253.800   125454783.92908  23873255.220    97756973.06746
  23559905.180   123808165.44508  23559906.060    96473905.15647
  23203620.840   121935839.89309  23203618.920    95014928.22647
  21634807.980   113691664.06009  21634806.020    88590889.13748
 15 02 17 00 09  0.0000000  0  7G16G18G21G25G27G29G31
  22644643.280   118998415.94309  22644639.840    92726024.88247
  23555400.320   123784513.44208  23555398.780    96455475.38445
  21013090.520   110424541.22908  21013087.040    86045085.38148
  23889830.080   125541892.33808  23889831.380    97824849.70645
  23546954.040   123740106.86108  23546954.980    96420872.52747
  23217602.480   122009313.77609  23217600.540    95072180.57347
  21647841.400   113760154.68209  21647839.420    88644258.43848
 15 02 17 00 09 30.0000000  0  7G16G18G21G25G27G29G31
  22629258.260   118917567.17809  22629254.740    92663025.84647
  23541926.380   123713707.58308  23541924.920    96400302.07745
  21016049.460   110440090.40308  21016045.900    86057201.63148
  23906444.680   125629202.25608  23906446.000    97892883.35846
  23534026.560   123672172.76308  23534027.540    96367936.90847
  23231586.600   122082800.62008  23231584.660    95129443.01847
  21660950.180   113829041.42009  21660948.140    88697936.30148
 15 02 17 00 10  0.0000000  0  7G16G18G21G25G27G29G31
  22613894.280   118836829.45109  22613891.000    92600113.35947
  23528473.860   123643014.41608  23528472.260    96345216.57045
  21019090.840   110456072.72408  21019087.200    86069655.39148
  23923097.940   125716715.49708  23923099.180    97961075.44246
  23521123.220   123604365.66108  23521124.260    96315100.25247
  23245573.380   122156301.76909  23245571.520    95186716.60247
  21674134.480   113898324.96109  21674132.420    88751923.48048
 15 02 17 00 10 30.0000000  0  7G16G18G21G25G27G29G31
  22598551.380   118756202.23809  22598548.240    92537286.97547
  23515042.880   123572434.12908  23515041.220    96290219.01245
  21022213.900   110472484.47008  21022210.260    86082443.76748
  23939789.240   125804428.63408  23939790.500    98029423.28646
  23508243.600   123536682.89308  23508244.600    96262360.47247
  23259562.520   122229815.13208  23259560.720    95243999.70847
  21687393.260   113968000.01309  21687391.220    88806215.74348
 15 02 17 00 11  0.0000000  0  7G16G18G21G25G27G29G31
  22583229.980   118675687.99809  22583226.820    92474548.62347
  23501634.100   123501970.27308  23501632.340    96235312.17645
  21025418.600   110489325.30908  21025415.000    86095566.50548
  23956518.600   125892341.80408  23956519.740    98097927.01046
  23495387.880   123469125.31308  23495388.700    96209718.24047
  23273553.980   122303340.76908  23273552.140    95301292.37547
  21700726.220   114038065.18009  21700724.180    88860811.92048
 15 02 17 00 11 30.0000000  0  7G16G18G21G25G27G29G31
  22567930.240   118595287.19509  22567927.120    92411898.66347
  23488247.720   123431624.18408  23488245.580    96180497.09645
  21028704.580   110506593.09008  21028701.020    86109021.93148
  23973285.700   125980453.04108  23973286.800    98166585.08646
  23482555.780   123401691.68408  23482556.400    96157172.58047
  23287547.700   122376877.94408  23287545.880    95358594.03647
  21714132.680   114108516.56109  21714130.720    88915708.97949
 15 02 17 00 12  0.0000000  0  7G16G18G21G25G27G29G31
  22552653.020   118515005.02309  22552649.880    92349341.15147
  23474884.860   123361401.90708  23474882.680    96125778.47545
  21032072.260   110524290.21508  21032068.740    86122811.90148
  23990090.980   126068764.88408  23990091.880    98235399.47046
  23469747.800   123334385.25508  23469748.320    96104726.05147
  23301544.000   122450428.96509  23301542.220    95415906.48847
  21727612.840   114179355.13609  21727610.860    88970907.64148
 15 02 17 00 12 30.0000000  0  7G16G18G21G25G27G29G31
  22537398.020   118434839.35409  22537394.820    92286874.40847
  23461545.340   123291302.99808  23461543.320    96071156.00745
  21035520.560   110542411.23608  21035517.080    86136932.18048
  24006933.540   126157272.62208  24006934.340    98304366.50045
  23456963.180   123267202.02308  23456963.720    96052375.50747
  23315542.220   122523989.69009  23315540.360    95473226.50947
  21741165.620   114250574.82109  21741163.680    89026403.29148
 15 02 17 00 13  0.0000000  0  7G16G18G21G25G27G29G31
  22522166.080   118354794.95409  22522162.920    92224502.17047
  23448230.100   123221332.12908  23448228.520    96016633.36346
  21039049.840   110560957.83208  21039046.360    86151384.07848
  24023813.680   126245977.90708  24023814.320    98373487.47145
  23444202.500   123200144.46008  23444203.100    96000122.89347
  23329542.640   122597561.99209  23329540.740    95530555.55047
  21754790.980   114322175.53609  21754789.040    89082195.77548
 15 02 17 00 13 30.0000000  0  7G16G18G21G25G27G29G31
  22506957.400   118274872.89309  22506954.240    92162225.25647
  23434939.720   123151491.85708  23434938.260    95962212.44846
  21042659.840   110579928.89908  21042656.380    86166166.73448
  24040731.160   126334879.69708  24040731.780    98442761.54945
  23431465.700   123133212.25308  23431466.320    95947967.96347
  23343545.240   122671145.83109  23343543.360    95587893.56847
  21768488.420   114394154.87309  21768486.440    89138283.37448
 15 02 17 00 14  0.0000000  0  7G16G18G21G25G27G29G31
  22491771.900   118195072.70409  22491768.800    92100043.31147
  23421674.400   123081782.59208  23421673.000    95907893.60346
  21046349.940   110599320.78708  21046346.500    86181277.29348
  24057685.280   126423974.56608  24057686.100    98512186.07646
  23418752.260   123066402.73208  23418752.840    95895908.63447
  23357549.440   122744738.04108  23357547.520    95645238.10847
  21782256.940   114466507.81809  21782254.940    89194662.12548
 15 02 17 00 14 30.0000000  0  7G16G18G21G25G27G29G31
  22476610.800   118115400.66709  22476607.800    92037961.22947
  23408435.380   123012211.44808  23408434.020    95853682.39646
  21050120.660   110619136.17508  21050117.220    86196717.86648
  24074676.780   126513265.92208  24074677.720    98581763.73545
  23406062.900   122999720.06308  23406063.440    95843948.15347
  23371555.960   122818342.57409  23371554.080    95702592.25347
  21796096.820   114539236.10009  21796094.920    89251333.39248
 15 02 17 00 15  0.0000000  0  7G16G18G21G25G27G29G31
  22461473.620   118035854.48609  22461470.600    91975977.21547
  23395222.440   122942776.68008  23395220.920    95799577.43146
  21053971.040   110639369.84808  21053967.560    86212484.37148
  24091704.780   126602748.97108  24091705.980    98651490.73945
  23393396.940   122933160.22008  23393397.400    95792083.37746
  23385563.960   122891955.25308  23385562.160    95759952.74847
  21810006.880   114612333.37509  21810005.000    89308292.25848
 15 02 17 00 15 30.0000000  0  7G16G18G21G25G27G29G31
  22446360.900   117956436.89009  22446357.940    91914093.39047
  23382036.020   122873481.77508  23382034.480    95745581.46546
  21057901.040   110660021.91408  21057897.560    86228576.89448
  24108769.280   126692423.71808  24108770.600    98721367.10845
  23380754.500   122866723.98608  23380754.960    95740314.92647
  23399573.600   122965576.48208  23399571.780    95817319.92247
  21823986.760   114685797.71009  21823984.900    89365537.15148
 15 02 17 00 16  0.0000000  0  7G16G18G21G25G27G29G31
  22431273.260   117877150.94109  22431270.260    91852312.14547
  23368877.140   122804331.33408  23368875.400    95691698.06946
  21061910.640   110681092.25508  21061907.160    86244995.34748
  24125870.340   126782290.53707  24125871.820    98791393.17445
  23368135.720   122800412.57708  23368136.360    95688643.75847
  23413585.080   123039207.39309  23413583.280    95874694.61547
  21838036.240   114759627.77109  21838034.360    89423066.90348
 15 02 17 00 16 30.0000000  0  7G16G18G21G25G27G29G31
  22416210.700   117797996.48809  22416207.560    91790633.36547
  23355745.860   122735325.76508  23355744.060    95637927.56746
  21065999.160   110702577.64308  21065995.700    86261737.20848
  24143007.400   126872346.37607  24143008.720    98861566.49446
  23355540.140   122734223.66908  23355541.040    95637068.05547
  23427597.920   123112845.40108  23427596.140    95932074.84247
  21852154.480   114833819.24209  21852152.600    89480878.25148
 15 02 17 00 17  0.0000000  0  7G16G18G21G25G27G29G31
  22401173.900   117718977.40009  22401170.700    91729060.05447
  23342643.000   122666469.34608  23342641.100    95584273.27546
  21070166.700   110724478.49208  21070163.240    86278802.81548
  24160180.580   126962592.09107  24160182.160    98931887.76746
  23342968.320   122668158.93408  23342969.260    95585589.08047
  23441612.380   123186491.98508  23441610.640    95989461.74847
  21866341.340   114908371.13709  21866339.500    89538970.48348
 15 02 17 00 17 30.0000000  0  7G16G18G21G25G27G29G31
  22386162.720   117640092.82209  22386159.460    91667591.56647
  23329568.680   122597762.65009  23329566.640    95530735.63946
  21074412.560   110746790.95308  21074409.100    86296189.15648
  24177389.260   127053024.44107  24177390.920    99002354.46746
  23330419.800   122602215.95108  23330420.740    95534204.98047
  23455628.060   123260144.57308  23455626.240    96046853.34947
  21880595.920   114983278.85609  21880594.080    89597340.03448
 15 02 17 00 18  0.0000000  0  7G16G18G21G25G27G29G31
  22371177.500   117561344.68909  22371174.200    91606229.40347
  23316523.260   122529208.13208  23316521.060    95477316.58946
  21078736.600   110769513.93608  21078733.100    86313895.38148
  24194633.340   127143642.31708  24194635.080    99072965.73846
  23317894.400   122536394.41408  23317895.340    95482915.51647
  23469644.800   123333802.79508  23469642.960    96104249.32647
  21894917.620   115058539.37509  21894915.840    89655984.51648
 15 02 17 00 18 30.0000000  0  7G16G18G21G25G27G29G31
  22356219.240   117482738.36809  22356215.920    91544977.73047
  23303507.840   122460811.98808  23303505.500    95424020.94845
  21083139.280   110792649.78409  21083135.620    86331923.31548
  24211913.280   127234448.36808  24211914.840    99143723.62646
  23305392.640   122470697.72408  23305393.640    95431723.35147
  23483663.220   123407469.85009  23483661.400    96161652.19647
  21909306.660   115134153.99609  21909304.940    89714904.99648
 15 02 17 00 19  0.0000000  0  7G16G18G21G25G27G29G31
  22341288.860   117404278.75209  22341285.460    91483840.37147
  23290523.600   122392580.10308  23290521.300    95370853.30746
  21087620.800   110816199.95508  21087617.020    86350274.09748
  24229229.400   127325444.61508  24229230.920    99214629.73946
  23292915.260   122405128.84908  23292916.160    95380630.75847
  23497683.760   123481148.20108  23497681.920    96219063.86347
  21923763.060   115210122.97009  21923761.440    89774101.53448
 15 02 17 00 19 30.0000000  0  7G16G18G21G25G27G29G31
  22326384.540   117325956.15109  22326381.120    91422809.79147
  23277568.880   122324503.29608  23277566.560    95317806.48145
  21092178.700   110840151.62108  21092174.860    86368937.73748
  24246579.320   127416618.43008  24246580.720    99285674.21346
  23280460.000   122339675.97608  23280460.840    95329628.54847
  23511704.220   123554826.27308  23511702.380    96276475.32147
  21938284.140   115286431.77909  21938282.540    89833562.91648
 15 02 17 00 20  0.0000000  0  7G16G18G21G25G27G29G31
  22311508.120   117247780.27009  22311504.660    91361893.51647
  23264645.800   122256592.29208  23264643.520    95264888.85446
  21096814.180   110864511.26408  21096810.340    86387919.27948
  24263964.360   127507976.68208  24263965.760    99356862.40946
  23268028.240   122274346.80008  23268029.100    95278722.74347
  23525726.120   123628511.63708  23525724.280    96333892.45546
  21952870.940   115363085.87509  21952869.360    89893293.36948
 15 02 17 00 20 30.0000000  0  7G16G18G21G25G27G29G31
  22296659.520   117169750.56609  22296656.140    91301091.15847
  23251754.320   122188847.20208  23251751.920    95212100.50546
  21101526.520   110889275.21408  21101522.760    86407215.86648
  24281383.880   127599516.15008  24281385.020    99428191.81946
  23255619.560   122209138.88508  23255620.480    95227911.43747
  23539748.940   123702201.67508  23539747.000    96391313.23147
  21967522.500   115440080.39509  21967520.940    89953289.10748
 15 02 17 00 21  0.0000000  0  7G16G18G21G25G27G29G31
  22281839.700   117091872.40609  22281836.440    91240406.88047
  23238895.540   122121274.13508  23238893.280    95159446.21546
  21106316.180   110914445.33908  21106312.500    86426828.94848
  24298838.280   127691238.95508  24298839.480    99499664.07146
  23243234.600   122144055.29208  23243235.440    95177196.98847
  23553773.180   123775899.10208  23553771.140    96448739.75747
  21982238.940   115517415.67509  21982237.380    90013550.29248
 15 02 17 00 21 30.0000000  0  7G16G18G21G25G27G29G31
  22267048.500   117014144.26509  22267045.240    91179839.49947
  23226069.320   122053872.35908  23226067.140    95106925.40246
  21111182.320   110940017.31408  21111178.700    86446755.16648
  24316326.720   127783140.98108  24316327.940    99571275.98246
  23230872.620   122079092.71208  23230873.380    95126576.84847
  23567798.140   123849600.46708  23567796.060    96506169.36147
  21997019.080   115595085.90609  21997017.560    90074072.47448
 15 02 17 00 22  0.0000000  0  7G16G18G21G25G27G29G31
  22252286.660   116936570.32509  22252283.460    91119392.28547
  23213276.600   121986646.66608  23213274.580    95054541.78845
  21116125.040   110965991.57208  21116121.440    86466994.84048
  24333849.380   127875223.17608  24333850.700    99643028.28045
  23218533.940   122014252.93408  23218534.780    95076052.38547
  23581824.220   123923307.55008  23581822.100    96563603.40347
  22011862.860   115673090.42509  22011861.400    90134855.15348
 15 02 17 00 22 30.0000000  0  7G16G18G21G25G27G29G31
  22237554.400   116859151.59709  22237551.120    91059066.00647
  23200517.840   121919599.19508  23200515.840    95002297.03246
  21121143.920   110992366.08608  21121140.320    86487546.41548
  24351405.980   127967483.81508  24351407.120    99714919.61445
  23206218.520   121949535.16408  23206219.440    95025623.00247
  23595851.220   123997019.54608  23595849.060    96621041.29346
  22026769.640   115751425.99409  22026768.180    90195895.78248
 15 02 17 00 23  0.0000000  0  7G16G18G21G25G27G29G31
  22222851.580   116781887.65409  22222848.300    90998860.34047
  23187793.060   121852729.99408  23187790.940    94950191.19546
  21126238.200   111019136.78608  21126234.600    86508406.70348
  24368995.900   128059919.45308  24368997.180    99786947.32845
  23193925.900   121884936.85008  23193926.780    94975286.70447
  23609878.580   124070733.87608  23609876.540    96678480.98347
  22041738.460   115830087.38509  22041737.020    90257190.31148
 15 02 17 00 23 30.0000000  0  7G16G18G21G25G27G29G31
  22208179.220   116704783.97409  22208175.960    90938779.55847
  23175103.360   121786045.23308  23175101.280    94898229.07746
  21131408.380   111046306.04508  21131404.760    86529577.55648
  24386619.680   128152532.48508  24386620.720    99859113.27244
  23181656.640   121820461.25908  23181657.380    94925046.02747
  23623906.960   124144453.49708  23623905.060    96735924.80546
  22056769.420   115909075.69409  22056768.060    90318739.66848
 15 02 17 00 24  0.0000000  0  8G16G18G21G22G25G27G29G31
  22193537.300   116627840.49809  22193534.060    90878823.61247
  23162448.860   121719545.08708  23162446.700    94846410.81446
  21136653.700   111073869.97008  21136650.040    86551055.93948
  24542623.040   128972363.28507  24542621.560   100497932.64346
  24404276.520   128245319.55308  24404277.560    99931414.81645
  23169410.200   121756105.85608  23169410.820    94874899.02547
  23637935.940   124218175.89008  23637934.040    96793370.78147
  22071861.520   115988385.45109  22071860.220    90380539.46248
 15 02 17 00 24 30.0000000  0  8G16G18G21G22G25G27G29G31
  22178925.460   116551055.04509  22178922.300    90818990.80347
  23149829.320   121653229.08308  23149827.160    94794736.03446
  21141973.220   111101823.94508  21141969.520    86572838.26148
  24525731.720   128883599.92708  24525730.600   100428766.56046
  24421965.680   128338276.34307  24421966.340   100003848.68244
  23157186.060   121691867.33808  23157186.540    94824843.07847
  23651964.760   124291897.59308  23651962.840    96850816.22646
  22087013.720   116068010.92609  22087012.480    90442585.35448
 15 02 17 00 25  0.0000000  0  8G16G18G21G22G25G27G29G31
  22164346.000   116474439.76209  22164342.840    90759290.59547
  23137247.120   121587109.69908  23137245.060    94743214.48746
  21147368.460   111130175.98308  21147364.740    86594930.76548
  24508823.800   128794747.81108  24508822.640   100359531.27446
  24439688.680   128431411.57907  24439689.860   100076421.53644
  23144985.940   121627755.30708  23144986.340    94774885.70047
  23665995.220   124365628.21508  23665993.380    96908268.62147
  22102227.320   116147959.09609  22102226.120    90504882.63248
 15 02 17 00 25 30.0000000  0  8G16G18G21G22G25G27G29G31
  22149797.700   116397987.60709  22149794.460    90699717.49547
  23124701.140   121521180.57508  23124699.160    94691841.16946
  21152837.500   111158915.83208  21152833.800    86617325.45248
  24491897.760   128705800.83108  24491896.340   100290222.12546
  24457443.560   128524715.30607  24457445.060   100149125.64545
  23132808.160   121563760.62208  23132808.520    94725019.74747
  23680025.700   124439358.55708  23680023.780    96965720.80646
  22117500.100   116228218.27009  22117498.900    90567422.23048
 15 02 17 00 26  0.0000000  0  8G16G18G21G22G25G27G29G31
  22135282.200   116321707.86909  22135278.820    90640278.74847
  23112193.200   121455451.57708  23112191.360    94640623.81146
  21158381.540   111188049.76708  21158377.860    86640027.22248
  24474955.460   128616768.64808  24474953.960   100220846.61946
  24475231.740   128618193.55107  24475233.580   100221965.74945
  23120653.980   121499890.36708  23120654.400    94675250.75347
  23694057.420   124513095.48608  23694055.440    97023178.12546
  22132832.960   116308792.95709  22132831.740    90630207.68948
 15 02 17 00 26 30.0000000  0  8G16G18G21G22G25G27G29G31
  22120798.700   116245595.91909  22120795.160    90580970.73347
  23099722.540   121389918.43708  23099720.740    94589559.06346
  21163998.860   111217569.03308  21163995.200    86663029.24548
  24457996.000   128527646.57008  24457994.640   100151400.97345
  24493051.860   128711838.60108  24493053.740   100294935.80446
  23108522.140   121436137.74508  23108522.660    94625573.43947
  23708089.040   124586832.32008  23708087.180    97080635.35546
  22148224.080   116389673.83309  22148222.800    90693231.76548
 15 02 17 00 27  0.0000000  0  8G16G18G21G22G25G27G29G31
  22106348.340   116169658.61709  22106344.800    90521798.83347
  23087290.660   121324588.81608  23087288.820    94538652.89146
  21169690.160   111247477.17908  21169686.500    86686334.30048
  24441020.860   128438442.31208  24441019.260   100081891.26645
  24510904.640   128805654.31108  24510906.380   100368038.87846
  23096413.580   121372507.55008  23096414.220    94575991.52847
  23722121.480   124660573.49808  23722119.700    97138095.99146
  22163673.880   116470862.94309  22163672.520    90756496.02548
 15 02 17 00 27 30.0000000  0  8G16G18G21G22G25G27G29G31
  22091930.900   116093894.62409  22091927.420    90462761.96947
  23074897.500   121259462.35708  23074895.620    94487905.03646
  21175454.520   111277769.40008  21175450.920    86709938.63548
  24424029.840   128349154.95808  24424027.720   100012316.86444
  24528789.000   128899636.13008  24528790.660   100441271.38946
  23084327.660   121308996.15908  23084328.360    94526502.18147
  23736154.160   124734315.83408  23736152.380    97195557.52346
  22179181.160   116552354.13409  22179179.720    90819995.64848
 15 02 17 00 28  0.0000000  0  8G16G18G21G22G25G27G29G31
  22077546.660   116018305.56609  22077543.380    90403861.42747
  23062543.320   121194540.59808  23062541.380    94437316.68146
  21181291.600   111308443.68908  21181288.000    86733840.68248
  24407023.300   128259786.09608  24407021.480    99942678.95044
  24546704.580   128993782.35508  24546706.280   100514632.00046
  23072264.300   121245602.79208  23072264.840    94477104.79447
  23750186.900   124808058.33008  23750185.080    97253019.20646
  22194745.300   116634144.09209  22194743.800    90883728.09348
 15 02 17 00 28 30.0000000  0  8G16G18G21G22G25G27G29G31
  22063196.840   115942897.33909  22063193.640    90345101.77847
  23050229.440   121129830.69008  23050227.420    94386893.40346
  21187201.900   111339502.63808  21187198.300    86758042.46248
  24390002.560   128170342.82808  24390001.100    99872983.00144
  24564652.140   129088096.40508  24564653.840   100588123.38446
  23060224.260   121182331.93908  23060224.760    94427802.85947
  23764220.400   124881804.99408  23764218.680    97310484.09846
  22210366.580   116716234.38909  22210365.080    90947694.52348
 15 02 17 00 29  0.0000000  0  8G16G18G21G22G25G27G29G31
  22048881.060   115867667.69409  22048877.880    90286481.28547
  23037955.600   121065331.14409  23037953.560    94336634.04546
  21193184.380   111370940.76708  21193180.760    86782539.70548
  24372967.340   128080823.07808  24372965.820    99803227.37844
  24582630.540   129182572.89108  24582632.000   100661741.33746
  23048206.680   121119179.04608  23048207.180    94378592.85447
  23778253.900   124955551.77608  23778252.320    97367949.09246
  22226043.720   116798618.20809  22226042.220    91011889.69148
 15 02 17 00 29 30.0000000  0  8G16G18G21G22G25G27G29G31
  22034600.140   115792620.87409  22034596.900    90228003.25647
  23025722.680   121001046.33708  23025720.560    94286542.01746
  21199239.160   111402758.80008  21199235.500    86807332.98548
  24355918.600   127991231.72308  24355916.840    99733416.02345
  24600639.880   129277212.60108  24600641.600   100735486.45346
  23036211.900   121056145.90508  23036212.400    94329476.16747
  23792287.800   125029300.47908  23792286.260    97425415.58946
  22241776.520   116881294.65309  22241775.020    91076312.84247
 15 02 17 00 30  0.0000000  0  8G16G18G21G22G25G27G29G31
  22020354.400   115717758.89209  22020351.080    90169669.25247
  23013531.160   120936979.00008  23013528.820    94236619.43946
  21205365.840   111434954.83908  21205362.180    86832420.80548
  24338856.620   127901570.96408  24338855.020    99663550.67145
  24618680.060   129372014.22707  24618681.560   100809357.74745
  23024239.700   120993232.21508  23024240.340    94280452.55647
  23806321.980   125103050.77908  23806320.500    97482883.31946
  22257564.420   116964260.69109  22257562.980    91140961.66948
 15 02 17 00 30 30.0000000  0  8G16G18G21G22G25G27G29G31
  22006144.420   115643084.88509  22006141.120    90111481.73147
  23001381.680   120873132.92509  23001379.180    94186869.27946
  21211564.440   111467528.79909  21211560.760    86857803.11048
  24321782.200   127811844.41808  24321780.620    99593633.97446
  24636751.040   129466978.23006  24636752.860   100883355.54445
  23012290.540   120930439.42608  23012291.180    94231523.14347
  23820356.700   125176803.81408  23820355.300    97540353.18246
  22273407.180   117047515.20109  22273405.840    91205835.33648
 15 02 17 00 31  0.0000000  0  8G16G18G21G22G25G27G29G31
  21991969.980   115568597.93409  21991966.720    90053439.97147
  22989274.180   120809507.71709  22989271.740    94137291.22446
  21217834.080   111500475.89309  21217830.360    86883476.18048
  24304695.080   127722051.56707  24304693.360    99523665.53546
  24654851.920   129562100.31306  24654853.900   100957476.54644
  23000363.780   120867764.14708  23000364.460    94182685.30847
  23834391.420   125250556.46108  23834390.000    97597822.76046
  22289303.680   117131052.10609  22289302.380    91270929.02048
 15 02 17 00 31 30.0000000  0  8G16G18G21G22G25G27G29G31
  21977831.680   115494301.02909  21977828.540    89995546.29148
  22977209.280   120746106.53708  22977206.860    94087887.73546
  21224174.620   111533795.36709  21224170.840    86909439.40448
  24287596.120   127632195.98607  24287594.300    99453648.23646
  24672982.900   129657380.27506  24672985.540   101031720.51544
  22988459.580   120805207.31208  22988460.280    94133939.75347
  23848426.140   125324309.27608  23848424.800    97655292.45346
  22305253.620   117214869.72709  22305252.380    91336241.46348
 15 02 17 00 32  0.0000000  0  8G16G18G21G22G25G27G29G31
  21963729.840   115420195.65609  21963726.720    89937801.85547
  22965187.440   120682932.01708  22965185.140    94038660.86746
  21230585.600   111567485.15209  21230581.800    86935691.18148
  24270485.600   127542279.42608  24270483.760    99383583.42746
  24691143.760   129752816.14407  24691146.080   101106086.06544
  22976577.680   120742767.95808  22976578.440    94085285.76047
  23862460.780   125398061.71508  23862459.520    97712761.85746
  22321256.280   117298964.27909  22321255.080    91401769.66248
 15 02 17 00 32 30.0000000  0  8G16G18G21G22G25G27G29G31
  21949665.040   115346284.77009  21949661.980    89880208.97547
  22953209.460   120619987.80308  22953207.240    93989613.46346
  21237066.900   111601544.60108  21237063.080    86962231.02148
  24253364.240   127452305.87208  24253362.120    99313474.11746
  24709334.560   129848407.95907  24709336.420   101180573.10144
  22964718.340   120680447.13108  22964719.140    94036724.12847
  23876495.540   125471814.61108  23876494.200    97770231.62046
  22337311.420   117383334.37509  22337310.140    91467512.62348
 15 02 17 00 33  0.0000000  0  8G16G18G21G22G25G27G29G31
  21935637.400   115272569.02109  21935634.320    89822768.15147
  22941275.480   120557274.60908  22941273.240    93940746.07446
  21243618.000   111635970.80608  21243614.160    86989056.63748
  24236232.280   127362276.48108  24236230.120    99243321.36346
  24727554.600   129944153.13608  24727556.240   101255179.65544
  22952881.340   120618243.26608  22952882.080    93988253.62247
  23890530.060   125545566.17508  23890528.720    97827700.35746
  22353418.160   117467975.43909  22353416.780    91533466.71747
 15 02 17 00 33 30.0000000  0  8G16G18G21G22G25G27G29G31
  21921647.840   115199053.16209  21921644.680    89765483.07547
  22929386.360   120494796.99108  22929384.080    93892062.24646
  21250239.120   111670765.07108  21250235.260    87016169.05048
  24219090.580   127272195.83208  24219088.540    99173128.53946
  24745803.980   130040053.07008  24745805.600   101329906.77845
  22941067.080   120556158.76108  22941067.760    93939876.13347
  23904564.840   125619319.22608  23904563.480    97885170.23846
  22369576.460   117552887.46909  22369574.980    91599631.96448
 15 02 17 00 34  0.0000000  0  8G16G18G21G22G25G27G29G31
  21907696.480   115125738.29109  21907693.300    89708354.62747
  22917542.660   120432557.79309  22917540.260    93843564.18946
  21256929.740   111705924.57408  21256925.860    87043566.06748
  24201939.420   127182065.70708  24201937.520    99102897.28346
  24764082.320   130136105.43308  24764084.140   101404752.67745
  22929275.360   120494192.36008  22929275.940    93891590.66948
  23918599.700   125693072.81908  23918598.300    97942640.54646
  22385785.560   117638066.41209  22385783.920    91666005.20748
 15 02 17 00 34 30.0000000  0  8G16G18G21G22G25G27G29G31
  21893783.600   115052625.78109  21893780.380    89651383.85548
  22905744.700   120370558.53009  22905742.140    93795253.09146
  21263689.480   111741447.33708  21263685.640    87071246.13848
  24184779.260   127091888.16608  24184777.340    99032629.10646
  24782389.380   130232308.67108  24782391.120   101479716.11046
  22917505.940   120432343.55608  22917506.500    93843396.83348
  23932634.460   125766825.98308  23932633.040    98000110.50746
  22402044.820   117723509.20909  22402043.060    91732584.01647
 15 02 17 00 35  0.0000000  0  8G16G18G21G22G25G27G29G31
  21879909.920   114979719.44209  21879906.740    89594573.73748
  22893993.240   120308803.50009  22893990.600    93747132.31346
  21270518.320   111777333.28808  21270514.560    87099209.21748
  24167610.840   127001667.60208  24167609.100    98962327.44647
  24800725.160   130328663.26708  24800727.140   101554797.46646
  22905759.140   120370613.87408  22905759.640    93795295.81847
  23946669.460   125840580.34008  23946667.940    98057581.41246
  22418354.040   117809214.72809  22418352.280    91799367.58648
 15 02 17 00 35 30.0000000  0  7G16G18G21G22G27G29G31
  21866074.880   114907015.94509  21866071.660    89537921.67447
  22882287.520   120247289.50009  22882284.840    93699199.36446
  21277414.860   111813574.99209  21277411.200    87127449.50248
  24150433.600   126911401.02708  24150432.000    98891989.92346
  22894033.920   120308997.81308  22894034.420    93747283.33447
  23960703.660   125914330.23008  23960702.140    98115048.83646
  22434711.640   117895174.61409  22434709.900    91866349.44947
 15 02 17 00 36  0.0000000  0  7G16G18G21G22G27G29G31
  21852280.080   114834523.89709  21852276.900    89481434.38047
  22870629.400   120186026.09209  22870626.720    93651461.66646
  21284380.100   111850177.65709  21284376.460    87155971.06948
  24133249.380   126821097.52608  24133247.540    98821623.70345
  22882331.500   120247501.62708  22882332.060    93699364.28248
  23974738.240   125988082.33108  23974736.660    98172517.97946
  22451118.300   117981392.33609  22451116.500    91933532.09048
 15 02 17 00 36 30.0000000  0  7G16G18G21G22G27G29G31
  21838525.580   114762243.59409  21838522.400    89425112.07847
  22859019.040   120125013.85509  22859016.360    93603919.68646
  21291413.460   111887138.24508  21291409.820    87184771.52748
  24116058.160   126730757.53808  24116056.320    98751229.07245
  22870651.560   120186123.37008  22870652.140    93651537.10948
  23988772.840   126061834.65908  23988771.260    98229987.30346
  22467573.120   118067863.34809  22467571.240    92000912.15748
 15 02 17 00 37  0.0000000  0  7G16G18G21G22G27G29G31
  21824811.500   114690175.64809  21824808.340    89368955.24747
  22847456.640   120064253.43509  22847454.080    93556573.93346
  21298514.160   111924452.89808  21298510.580    87213847.88748
  24098860.100   126640382.35508  24098858.600    98680807.04345
  22858993.720   120124861.29108  22858994.300    93603800.46547
  24002807.180   126135585.31208  24002805.640    98287455.32146
  22484075.220   118154583.08709  22484073.440    92068485.96848
 15 02 17 00 37 30.0000000  0  7G16G18G21G22G27G29G31
  21811138.420   114618323.31409  21811135.280    89312966.43048
  22835942.920   120003748.78309  22835940.500    93509427.46546
  21305682.220   111962121.42409  21305678.700    87243199.98448
  24081656.220   126549975.87608  24081654.440    98610360.66145
  22847358.200   120063716.65708  22847358.740    93556155.33547
  24016841.520   126209335.83808  24016839.960    98344923.23946
  22500624.440   118241550.04309  22500622.680    92136252.39948
 15 02 17 00 38  0.0000000  0  7G16G18G21G22G27G29G31
  21797506.380   114546686.40609  21797503.160    89257145.47748
  22824477.940   119943500.04809  22824475.620    93462480.41246
  21312916.880   112000139.83408  21312913.360    87272824.71448
  24064446.300   126459538.12708  24064444.300    98539889.83145
  22835744.540   120002686.90608  22835745.160    93508599.73247
  24030875.300   126283083.51808  24030873.660    98402388.93846
  22517219.760   118328759.02209  22517218.020    92204207.40948
 15 02 17 00 38 30.0000000  0  7G16G18G21G22G27G29G31
  21783915.820   114475267.33909  21783912.520    89201494.27848
  22813062.240   119883510.33708  22813060.060    93415735.21746
  21320217.940   112038507.11408  21320214.420    87302721.30348
  24047231.040   126369072.17608  24047229.080    98469397.02645
  22824152.860   119941772.32408  22824153.560    93461133.86748
  24044908.660   126356828.96808  24044906.940    98459852.90446
  22533860.640   118416207.61809  22533858.820    92272349.16648
 15 02 17 00 39  0.0000000  0  7G16G18G21G22G27G29G31
  21770368.060   114404073.54809  21770364.760    89146018.61348
  22801697.340   119823787.56109  22801695.240    93369198.01746
  21327586.020   112077226.77209  21327582.520    87332892.46148
  24030011.940   126278585.72808  24030009.940    98398888.22844
  22812584.100   119880978.17508  22812584.760    93413761.84547
  24058942.620   126430577.44008  24058940.820    98517319.21946
  22550547.700   118503898.51809  22550545.920    92340679.76448
 15 02 17 00 39 30.0000000  0  7G16G18G21G22G27G29G31
  21756862.380   114333100.93309  21756859.160    89090715.29048
  22790382.580   119764328.01109  22790380.500    93322865.92746
  21335019.660   112116290.80609  21335016.140    87363331.97148
  24012788.260   126188075.58508  24012786.080    98328360.96545
  22801036.980   119820298.02508  22801037.580    93366478.64747
  24072975.880   126504322.62108  24072974.100    98574782.97946
  22567279.060   118591822.35609  22567277.320    92409191.84847
 15 02 17 00 40  0.0000000  0  7G16G18G21G22G27G29G31
  21743399.600   114262353.51309  21743396.360    89035587.44648
  22779118.660   119705135.83609  22779116.420    93276742.17746
  21342518.860   112155699.33108  21342515.340    87394039.92048
  23995560.940   126097545.64708  23995558.900    98257818.28546
  22789511.880   119759733.41608  22789512.360    93319285.48347
  24087008.780   126578065.88008  24087007.060    98632245.22946
  22584054.520   118679977.69109  22584052.680    92477884.32347
 15 02 17 00 40 30.0000000  0  7G16G18G21G22G27G29G31
  21729980.720   114191836.66509  21729977.480    88980639.27748
  22767906.680   119646216.62508  22767904.340    93230831.12446
  21350083.920   112195454.01608  21350080.400    87425017.60148
  23978331.020   126007002.16908  23978329.160    98187265.05446
  22778009.460   119699287.76208  22778009.980    93272185.01547
  24101041.900   126651810.72308  24101040.180    98689708.72946
  22600874.200   118768365.57709  22600872.360    92546758.00448
 15 02 17 00 41  0.0000000  0  7G16G18G21G22G27G29G31
  21716605.040   114121546.55809  21716601.680    88925867.77248
  22756746.000   119587567.13409  22756743.760    93185130.26146
  21357713.400   112235547.19608  21357709.900    87456259.04448
  23961097.880   125916441.94008  23961095.920    98116698.77646
  22766528.520   119638955.09608  22766529.060    93225172.58547
  24115074.320   126725551.67708  24115072.680    98747169.19446
  22617736.420   118856976.93409  22617734.580    92615805.80247
 15 02 17 00 41 30.0000000  0  7G16G18G21G22G27G29G31
  21703273.220   114051487.21909  21703269.820    88871276.09748
  22745637.420   119529191.11009  22745635.160    93139642.47046
  21365407.360   112275979.33908  21365403.900    87487764.60648
  23943862.500   125825869.34408  23943860.400    98046122.84146
  22755069.360   119578736.85408  22755069.780    93178249.31047
  24129106.260   126799289.96208  24129104.700    98804627.57146
  22634640.920   118945810.57909  22634639.020    92685026.80447
 15 02 17 00 42  0.0000000  0  7G16G18G21G22G27G29G31
  21689986.500   113981665.00509  21689983.120    88816869.19048
  22734582.240   119471095.83109  22734580.000    93094373.44746
  21373166.280   112316752.67308  21373162.820    87519536.04348
  23926625.980   125735291.14308  23926624.000    97975542.52946
  22743632.720   119518637.14708  22743633.080    93131418.41248
  24143138.500   126873029.76008  24143137.000    98862087.11746
  22651588.020   119034868.10909  22651586.240    92754422.28048
 15 02 17 00 42 30.0000000  0  7G16G18G21G22G27G29G31
  21676744.720   113912079.07109  21676741.400    88762646.40448
  22723580.460   119413281.11909  22723578.180    93049323.04046
  21380989.180   112357862.25408  21380985.720    87551569.48548
  23909388.360   125644706.73408  23909386.260    97904957.39646
  22732218.060   119458653.01408  22732218.440    93084677.57248
  24157170.460   126946768.00208  24157169.000    98919545.45746
  22668576.500   119124143.18209  22668574.760    92823987.29447
 15 02 17 00 43  0.0000000  0  7G16G18G21G22G27G29G31
  21663547.920   113842729.79709  21663544.680    88708608.03048
  22712632.120   119355747.06509  22712629.780    93004491.33646
  21388875.440   112399304.82708  21388872.000    87583862.40548
  23892149.680   125554117.38908  23892147.460    97834368.44246
  22720825.100   119398782.60508  22720825.480    93038025.34948
  24171202.000   127020503.71208  24171200.500    98977001.84046
  22685605.620   119213631.80909  22685603.900    92893718.65148
 15 02 17 00 43 30.0000000  0  7G16G18G21G22G27G29G31
  21650396.880   113773620.97809  21650393.720    88654757.01448
  22701738.020   119298498.43209  22701735.640    92959882.02647
  21396825.140   112441080.71708  21396821.720    87616415.04448
  23874910.740   125463527.21008  23874908.700    97763778.80646
  22709454.040   119339027.44108  22709454.380    92991462.91948
  24185233.180   127094237.80508  24185231.560    99034456.95846
  22702675.100   119303332.25809  22702673.420    92963615.04448
 15 02 17 00 44  0.0000000  0  7G16G18G21G22G27G29G31
  21637292.520   113704757.34609  21637289.300    88601097.05948
  22690899.040   119241539.40809  22690896.620    92915498.39746
  21404838.340   112483190.28308  21404834.900    87649227.70248
  23857672.700   125372941.40808  23857670.620    97693192.57346
  22698105.300   119279389.82308  22698105.660    92944992.09848
  24199264.500   127167972.89208  24199262.780    99091912.86346
  22719784.780   119393244.15709  22719783.100    93033676.23548
 15 02 17 00 44 30.0000000  0  7G16G18G21G22G27G29G31
  21624234.600   113636137.71509  21624231.360    88547627.23248
  22680115.020   119184869.13109  22680112.600    92871339.76346
  21412914.120   112525628.69308  21412910.620    87682296.58948
  23840435.220   125282359.28908  23840433.160    97622609.23046
  22686778.340   119219866.33509  22686778.740    92898610.19948
  24213295.320   127241705.68308  24213293.700    99149366.97146
  22736933.540   119483361.68809  22736932.000    93103897.59048
 15 02 17 00 45  0.0000000  0  7G16G18G21G22G27G29G31
  21611223.540   113567763.97109  21611220.200    88494349.00348
  22669386.460   119128490.08909  22669384.020    92827408.06446
  21421052.020   112568393.70208  21421048.500    87715619.97048
  23823198.960   125191783.38808  23823196.940    97552030.72446
  22675473.080   119160456.65709  22675473.460    92852316.98648
  24227325.580   127315435.71408  24227324.160    99206818.91946
  22754120.820   119573681.62509  22754119.340    93174276.77547
 15 02 17 00 45 30.0000000  0  7G16G18G21G22G27G29G31
  21598260.000   113499639.65109  21598256.560    88441265.13248
  22658714.080   119072406.34109  22658711.640    92783706.46946
  21429252.020   112611485.19208  21429248.520    87749197.75948
  23805964.780   125101217.51008  23805962.800    97481460.02946
  22664189.680   119101162.09708  22664190.020    92806113.48248
  24241355.660   127389164.79508  24241354.320    99264270.13545
  22771346.300   119664202.30409  22771344.860    93244812.37848
 15 02 17 00 46  0.0000000  0  7G16G18G21G22G27G29G31
  21585344.180   113431765.91809  21585340.600    88388376.51148
  22648098.080   119016619.08609  22648095.640    92740235.90747
  21437513.620   112654900.41708  21437510.140    87783027.80248
  23788732.820   125010663.78408  23788730.740    97410898.79546
  22652927.980   119041981.62708  22652928.260    92759998.87548
  24255385.400   127462891.60808  24255384.060    99321719.58345
  22788609.260   119754919.78709  22788607.820    93315501.32348
 15 02 17 00 46 30.0000000  0  7G16G18G21G22G27G29G31
  21572476.440   113364145.12509  21572472.780    88335684.99948
  22637538.980   118961130.88609  22637536.520    92696998.36746
  21445836.500   112698637.62509  21445833.040    87817108.74748
  23771503.740   124920124.63608  23771501.420    97340348.92846
  22641688.000   118982915.15708  22641688.200    92713973.09548
  24269414.760   127536616.47308  24269413.360    99379167.52046
  22805909.100   119845831.23609  22805907.680    93386341.40947
 15 02 17 00 47  0.0000000  0  7G16G18G21G22G27G29G31
  21559657.440   113296780.89609  21559653.800    88283193.40448
  22627037.480   118905945.23309  22627034.980    92653996.57846
  21454220.660   112742696.71208  21454217.220    87851440.50548
  23754278.280   124829604.49908  23754276.020    97269813.86446
  22630469.940   118923964.19508  22630470.200    92668037.33248
  24283444.020   127610341.01608  24283442.760    99436615.19746
  22823245.620   119936935.50309  22823244.180    93457331.79447
 15 02 17 00 47 30.0000000  0  7G16G18G21G22G27G29G31
  21546887.520   113229674.85509  21546883.940    88230902.99348
  22616593.940   118851064.02609  22616591.380    92611232.01546
  21462665.560   112787074.99009  21462662.080    87886020.98648
  23737056.780   124739104.99708  23737054.460    97199294.89146
  22619273.700   118865127.79409  22619273.980    92622190.83048
  24297473.080   127684064.18208  24297471.940    99494061.78546
  22840618.140   120028228.63509  22840616.660    93528469.25947
 15 02 17 00 48  0.0000000  0  7G16G18G21G22G27G29G31
  21534166.640   113162826.76609  21534163.180    88178813.58048
  22606208.400   118796487.52909  22606205.760    92568704.89247
  21471170.480   112831768.64309  21471167.000    87920847.21448
  23719839.380   124648626.32409  23719836.640    97128792.13346
  22608098.880   118806403.64509  22608099.020    92576431.78648
  24311501.560   127757784.18708  24311500.600    99551505.92646
  22858025.660   120119705.74409  22858024.180    93599750.12147
 15 02 17 00 48 30.0000000  0  7G16G18G21G22G27G29G31
  21521495.500   113096240.13309  21521492.140    88126927.89248
  22595881.460   118742219.33809  22595878.920    92526418.01847
  21479735.320   112876777.25809  21479731.800    87955918.86548
  23702626.780   124558173.26708  23702623.900    97058309.32546
  22596945.660   118747793.09409  22596945.700    92530761.26648
  24325529.740   127831502.19208  24325528.720    99608948.49946
  22875467.880   120211365.18709  22875466.420    93671173.05147
 15 02 17 00 49  0.0000000  0  7G16G18G21G22G27G29G31
  21508874.920   113029919.27809  21508871.740    88075249.31948
  22585614.060   118688264.01009  22585611.600    92484374.93047
  21488360.100   112922100.98509  21488356.640    87991236.05148
  23685419.800   124467750.43108  23685416.980    96987850.09246
  22585814.440   118689298.12209  22585814.460    92485180.81348
  24339557.840   127905219.79008  24339556.720    99666390.76945
  22892944.640   120303206.02309  22892943.160    93742737.32047
 15 02 17 00 49 30.0000000  0  7G16G18G21G22G27G29G31
  21496305.060   112963864.61709  21496301.960    88023778.16248
  22575406.240   118634621.86409  22575403.780    92442575.88747
  21497044.180   112967736.23309  21497040.760    88026795.98748
  23668218.600   124377358.19808  23668215.780    96917414.71046
  22574704.800   118630916.57009  22574704.760    92439688.73648
  24353585.600   127978935.77008  24353584.380    99723831.78846
  22910454.980   120395223.28909  22910453.420    93814439.02348
 15 02 17 00 50  0.0000000  0  7G16G18G21G22G27G29G31
  21483786.620   112898079.80209  21483783.540    87972517.28448
  22565258.760   118581296.52309  22565256.260    92401023.69646
  21505787.540   113013682.91309  21505784.160    88062598.59548
  23651024.080   124287001.37408  23651021.220    96847006.90446
  22563617.040   118572650.25509  22563616.980    92394286.45847
  24367613.400   128052652.05708  24367612.160    99781273.04546
  22927998.700   120487416.05509  22927997.200    93886277.52547
 15 02 17 00 50 30.0000000  0  7G16G18G21G22G27G29G31
  21471319.480   112832564.27909  21471316.340    87921466.22548
  22555171.620   118528288.16009  22555169.080    92359718.49147
  21514589.300   113059936.39309  21514585.900    88098640.26948
  23633836.200   124196679.45308  23633833.600    96776626.32647
  22552550.680   118514496.14109  22552550.520    92348971.59248
  24381640.620   128126365.50408  24381639.440    99838712.07346
  22945574.660   120579778.41609  22945573.220    93958248.16147
 15 02 17 00 51  0.0000000  0  7G16G18G21G22G27G29G31
  21458904.340   112767321.75609  21458901.100    87870627.90548
  22545145.620   118475600.92509  22545143.000    92318663.52747
  21523449.480   113106496.77109  21523446.080    88134921.09448
  23616655.900   124106397.09008  23616653.480    96706276.56746
  22541505.940   118456455.95608  22541505.780    92303745.52147
  24395667.660   128200077.87808  24395666.400    99896150.27546
  22963182.720   120672309.27509  22963181.360    94030350.09548
 15 02 17 00 51 30.0000000  0  7G16G18G21G22G27G29G31
  21446542.140   112702357.66409  21446538.780    87820006.54248
  22535181.520   118423238.96909  22535178.940    92277862.01947
  21532368.220   113153364.93009  21532364.780    88171441.73548
  23599484.240   124016159.85708  23599481.740    96635961.95146
  22530483.300   118398532.31208  22530483.220    92258610.25948
  24409695.000   128273791.82908  24409693.760    99953589.69746
  22980822.820   120765008.58709  22980821.600    94102583.28047
 15 02 17 00 52  0.0000000  0  7G16G18G21G22G27G29G31
  21434231.800   112637665.96309  21434228.320    87769597.42848
  22525278.320   118371197.33009  22525275.780    92237310.12447
  21541343.520   113200530.51309  21541340.080    88208194.13748
  23582320.120   123925962.26208  23582317.600    96565678.24847
  22519481.440   118340717.22609  22519481.320    92213559.57948
  24423721.080   128347499.56908  24423719.780   100011024.28746
  22998492.840   120857865.00309  22998491.580    94174938.85547
 15 02 17 00 52 30.0000000  0  7G16G18G21G22G27G29G31
  21421975.100   112573256.25209  21421971.520    87719408.05148
  22515437.880   118319485.66909  22515435.300    92197015.34947
  21550376.700   113248000.26509  21550373.220    88245183.56348
  23565165.500   123835814.61708  23565162.960    96495433.46547
  22508501.580   118283017.96409  22508501.520    92168599.15448
  24437747.400   128421208.82508  24437745.920   100068460.07345
  23016193.640   120950883.39809  23016192.420    94247420.71347
 15 02 17 00 53  0.0000000  0  7G16G18G21G22G27G29G31
  21409771.980   112509128.41509  21409768.380    87669438.32048
  22505660.220   118268103.71609  22505657.600    92156977.48647
  21559466.840   113295769.47309  21559463.360    88282406.32448
  23548020.500   123745717.32108  23548017.840    96425227.89246
  22497543.320   118225432.10309  22497543.240    92123727.09448
  24451773.600   128494917.34508  24451772.060   100125895.30045
  23033924.340   121044058.79009  23033923.180    94320024.93747
 15 02 17 00 53 30.0000000  0  7G16G18G21G22G27G29G31
  21397622.360   112445281.68909  21397618.740    87619687.63148
  22495945.020   118217050.55509  22495942.540    92117195.82746
  21568613.100   113343833.52809  21568609.620    88319858.83248
  23530885.080   123655670.14608  23530882.280    96355061.38346
  22486606.180   118167956.78909  22486606.040    92078941.15648
  24465799.080   128568621.97408  24465797.800   100183327.44745
  23051683.740   121137385.02409  23051682.620    94392746.59647
 15 02 17 00 54  0.0000000  0  7G16G18G21G22G27G29G31
  21385527.460   112381722.82109  21385523.920    87570161.24648
  22486293.840   118166333.55109  22486291.340    92077676.10646
  21577815.980   113392195.22009  21577812.500    88357543.27148
  23513760.500   123565680.22308  23513757.560    96284939.48446
  22475690.900   118110596.54509  22475690.780    92034244.90748
  24479824.800   128642327.59808  24479823.680   100240760.37745
  23069472.160   121230863.63709  23069470.980    94465587.04347
 15 02 17 00 54 30.0000000  0  7G16G18G21G22G27G29G31
  21373487.100   112318450.66509  21373483.660    87520858.27748
  22476706.380   118115951.49709  22476703.940    92038417.39047
  21587074.460   113440849.00709  21587070.980    88395455.31848
  23496646.680   123475746.83108  23496643.700    96214861.64547
  22464796.780   118053347.78209  22464796.740    91989635.52348
  24493850.020   128716030.67408  24493848.900   100298191.31945
  23087288.400   121324488.32609  23087287.320    94538541.29347
 15 02 17 00 55  0.0000000  0  7G16G18G21G22G27G29G31
  21361502.820   112255473.10609  21361499.460    87471784.85348
  22467184.140   118065912.10909  22467181.840    91999425.69947
  21596389.420   113489799.21909  21596385.940    88433598.34848
  23479545.180   123385878.53308  23479542.140    96144834.51947
  22453924.940   117996216.09009  22453924.820    91945117.35248
  24507875.820   128789736.93208  24507874.660   100355624.75645
  23105132.960   121418261.78809  23105131.780    94611611.48647
 15 02 17 00 55 30.0000000  0  7G16G18G21G22G27G29G31
  21349573.960   112192786.73909  21349570.620    87422938.33748
  22457726.520   118016211.89109  22457724.140    91960698.27147
  21605759.400   113539038.22309  21605755.860    88471966.40448
  23462455.500   123296072.54908  23462452.520    96074855.94546
  22443074.340   117939195.88309  22443074.200    91900686.04948
  24521901.240   128863440.85108  24521900.120   100413056.35145
  23123004.260   121512175.67809  23123003.140    94684791.06747
 15 02 17 00 56  0.0000000  0  7G16G18G21G22G27G29G31
  21337700.940   112130393.61909  21337697.620    87374320.33448
  22448333.800   117966852.80909  22448331.340    91922236.66547
  21615184.000   113588564.12909  21615180.380    88510558.02948
  23445378.260   123206331.68808  23445375.240    96004928.10646
  22432244.980   117882287.15209  22432244.840    91856341.62048
  24535926.320   128937142.86508  24535924.900   100470486.50245
  23140901.640   121606227.11609  23140900.520    94758077.86247
 15 02 17 00 56 30.0000000  0  7G16G18G21G22G27G29G31
  21325884.900   112068299.90109  21325881.600    87325935.62548
  22439007.300   117917841.75809  22439004.800    91884046.25447
  21624663.520   113638378.79109  21624659.820    88549374.64448
  23428314.700   123116662.37208  23428311.600    95935056.00546
  22421437.480   117825493.66309  22421437.380    91812086.98748
  24549951.700   129010846.48808  24549950.000   100527917.88045
  23158825.360   121700417.01309  23158824.220    94831472.56747
 15 02 17 00 57  0.0000000  0  6G16G18G21G22G27G31
  21314127.580   112006514.77609  21314124.280    87277791.37948
  22429748.640   117869187.12609  22429746.060    91846133.57747
  21634199.000   113688487.56209  21634195.180    88588420.44048
  23411266.540   123027074.20208  23411263.440    95865247.14846
  22410653.220   117768822.12109  22410653.060    91767927.37448
  23176776.180   121794749.23208  23176775.000    94904978.17047
 15 02 17 00 57 30.0000000  0  6G16G18G21G22G27G31
  21302425.520   111945019.98309  21302422.220    87229873.36748
  22420554.400   117820870.93009  22420551.740    91808484.60947
  21643786.180   113738868.32509  21643782.340    88627678.17948
  23394230.480   122937549.63808  23394227.360    95795487.85246
  22399888.280   117712252.12909  22399888.160    91723846.87948
  23194749.660   121889200.41808  23194748.580    94978576.49947
 15 02 17 00 58  0.0000000  0  6G16G18G21G22G27G31
  21290781.480   111883830.12609  21290778.200    87182192.97048
  22411427.360   117772907.73009  22411424.700    91771110.71547
  21653426.980   113789531.07608  21653423.160    88667155.64848
  23377209.380   122848103.70308  23377206.240    95725789.82146
  22389144.980   117655796.26908  22389145.040    91679855.33748
  23212747.600   121983780.20008  23212746.520    95052275.00947
 15 02 17 00 58 30.0000000  0  7G16G18G19G21G22G27G31
  21279195.700   111822946.33409  21279192.340    87134751.05848
  22402367.560   117725298.17509  22402364.900    91734012.38647
  24540640.560   128961935.80807  24540638.460   100489809.20746
  21663120.860   113840473.22509  21663117.080    88706850.82648
  23360203.620   122758738.09708  23360200.500    95656154.38247
  22378423.180   117599453.27909  22378423.320    91635951.73348
  23230769.320   122078484.55209  23230768.200    95126070.60247
 15 02 17 00 59  0.0000000  0  7G16G18G19G21G22G27G31
  21267662.700   111762340.07509  21267659.320    87087525.40648
  22393369.700   117678014.48509  22393367.040    91697167.97947
  24526021.340   128885111.44008  24526019.240   100429946.12746
  21672861.760   113891662.72208  21672858.080    88746738.74248
  23343207.880   122669425.15908  23343204.700    95586560.00446
  22367717.120   117543192.65409  22367717.180    91592112.30348
  23248808.360   122173280.14208  23248807.200    95199937.31247
 15 02 17 00 59 30.0000000  0  7G16G18G19G21G22G27G31
  21256195.220   111702078.03209  21256191.800    87040567.97248
  22384446.460   117631122.85309  22384443.860    91660629.06147
  24511424.740   128808406.17808  24511422.720   100370175.85146
  21682661.660   113943162.31908  21682658.080    88786868.29048
  23326234.940   122580232.19308  23326231.720    95517059.09446
  22357038.940   117487078.68109  22357038.980    91548387.16048
  23266876.380   122268228.30108  23266875.360    95273922.83247
 15 02 17 01 00  0.0000000  0  7G16G18G19G21G22G27G31
  21244786.140   111642122.82809  21244782.780    86993849.63948
  22375590.680   117584585.74809  22375588.180    91624366.40047
  24496843.160   128731779.70808  24496841.080   100310466.96646
  21692512.540   113994929.89408  21692509.100    88827206.65948
  23309277.700   122491121.87908  23309274.560    95447622.60647
  22346381.140   117431071.55109  22346381.240    91504745.27348
  23284965.360   122363286.26509  23284964.400    95347993.89247
 15 02 17 01 00 30.0000000  0  7G16G18G19G21G22G27G31
  21233436.940   111582482.52709  21233433.640    86947376.67748
  22366803.880   117538410.84709  22366801.360    91588385.97247
  24482277.800   128655238.21708  24482275.660   100250824.29946
  21702415.320   114046969.83308  21702412.040    88867757.25648
  23292337.960   122402102.80808  23292334.660    95378257.18846
  22335744.980   117375177.17509  22335745.000    91461191.24148
  23303075.800   122458457.03509  23303074.840    95422152.86947
 15 02 17 01 01  0.0000000  0  7G16G18G19G21G22G27G31
  21222148.040   111523159.08009  21222144.840    86901150.62148
  22358086.400   117492600.28009  22358083.880    91552689.45147
  24467728.580   128578781.50708  24467726.380   100191247.68946
  21712369.480   114099279.42308  21712366.260    88908517.97148
  23275415.940   122313177.41008  23275412.660    95308964.77146
  22325130.100   117319395.20709  22325129.980    91417724.80148
  23321207.120   122553737.36609  23321206.100    95496397.27847
 15 02 17 01 01 30.0000000  0  7G16G18G19G21G22G27G31
  21210919.500   111464152.90909  21210916.320    86855171.79748
  22349438.400   117447154.63409  22349435.840    91517277.27847
  24453195.200   128502407.95108  24453192.860   100131735.87346
  21722374.500   114151855.86608  21722371.240    88949486.62848
  23258512.040   122224347.01608  23258508.720    95239746.38246
  22314536.180   117263724.06309  22314535.940    91374344.72648
  23339358.400   122649122.78608  23339357.500    95570723.50847
 15 02 17 01 02  0.0000000  0  7G16G18G19G21G22G27G31
  21199752.320   111405469.30309  21199749.200    86809444.31348
  22340860.720   117402078.84709  22340858.220    91482153.31347
  24438678.180   128426120.42308  24438675.800   100072291.09446
  21732430.560   114204700.47908  21732427.220    88990664.24548
  23241627.380   122135617.70508  23241623.900    95170606.74547
  22303964.060   117208166.95609  22303963.760    91331053.49048
  23357529.820   122744613.73809  23357528.900    95645131.99547
 15 02 17 01 02 30.0000000  0  7G16G18G19G21G22G27G31
  21188646.740   111347109.45709  21188643.660    86763969.11448
  22332353.580   117357373.84009  22332351.140    91447318.26347
  24424177.380   128349918.12008  24424174.940   100012912.71246
  21742536.960   114257809.80908  21742533.600    89032048.13248
  23224762.220   122046991.20308  23224758.820    95101547.24647
  22293413.420   117152722.66109  22293413.140    91287850.16848
  23375720.460   122840206.17308  23375719.600    95719619.55947
 15 02 17 01 03  0.0000000  0  7G16G18G19G21G22G27G31
  21177602.820   111289073.54709  21177599.820    86718746.33148
  22323917.020   117313039.67309  22323914.600    91412772.17347
  24409692.280   128273798.63208  24409689.780    99953598.86345
  21752693.020   114311180.29108  21752689.680    89073635.51748
  23207916.680   121958467.92609  23207913.420    95032568.16847
  22282883.740   117097389.13409  22282883.440    91244733.16948
  23393929.440   122935894.89608  23393928.460    95794182.15347
 15 02 17 01 03 30.0000000  0  7G16G18G19G21G22G27G31
  21166621.860   111231368.33609  21166618.840    86673781.24448
  22315552.380   117269083.28009  22315550.000    91378520.45647
  24395223.820   128197766.67708  24395221.280    99894353.22145
  21762899.360   114364814.88808  21762895.980    89115428.71148
  23191092.220   121870055.42809  23191089.040    94963675.39847
  22272376.040   117042171.05109  22272375.660    91201706.10948
  23412157.140   123031681.74108  23412156.140    95868821.17547
 15 02 17 01 04  0.0000000  0  7G16G18G19G21G22G27G31
  21155703.000   111173989.27109  21155699.940    86629070.27748
  22307258.760   117225499.84409  22307256.280    91344559.35247
  24380770.780   128121815.65208  24380768.240    99835170.65145
  21773154.340   114418704.93509  21773150.920    89157420.94448
  23174288.120   121781749.83809  23174284.900    94894865.92547
  22261889.080   116987061.82209  22261888.620    91158763.87148
  23430401.680   123127557.45308  23430400.740    95943529.44747
 15 02 17 01 04 30.0000000  0  7G16G18G19G21G22G27G31
  21144848.080   111116945.99509  21144844.900    86584620.98148
  22299037.780   117182298.39709  22299035.200    91310895.91547
  24366334.420   128045952.72808  24366332.040    99776056.75445
  21783458.960   114472855.64009  21783455.440    89199616.30248
  23157506.300   121693560.97609  23157502.980    94826147.41347
  22251424.140   116932068.60109  22251423.860    91115912.04548
  23448663.920   123223526.06508  23448663.020    96018310.14247
 15 02 17 01 05  0.0000000  0  7G16G18G19G21G22G27G31
  21134056.740   111060236.92909  21134053.480    86540432.09648
  22290889.160   117139477.14209  22290886.440    91277528.71447
  24351914.040   127970173.97607  24351911.820    99717008.42545
  21793812.140   114527261.50109  21793808.520    89242010.47948
  23140746.540   121605487.90309  23140743.160    94757519.13147
  22240980.580   116877187.58009  22240980.420    91073147.64448
  23466942.620   123319581.00608  23466941.700    96093158.11147
 15 02 17 01 05 30.0000000  0  7G16G18G19G21G22G27G31
  21123329.620   111003865.23609  21123326.320    86496506.10848
  22282813.520   117097039.56209  22282810.800    91244460.47947
  24337509.900   127894480.87107  24337507.640    99658026.84845
  21804213.780   114581922.19609  21804210.100    89284603.22948
  23124009.580   121517534.83409  23124006.140    94688984.35847
  22230558.660   116822420.13109  22230558.480    91030471.73548
  23485237.460   123415720.43408  23485236.340    96168071.91747
 15 02 17 01 06  0.0000000  0  7G16G18G19G21G22G27G31
  21112666.660   110947830.80809  21112663.300    86452842.91348
  22274810.760   117054985.05809  22274808.120    91211690.74847
  24323121.580   127818870.92407  24323119.280    99599110.06145
  21814663.040   114636833.29709  21814659.320    89327391.09748
  23107295.500   121429702.29008  23107291.960    94620543.47547
  22220157.900   116767763.95809  22220157.680    90987882.53148
  23503547.400   123511939.42709  23503546.160    96243047.69047
 15 02 17 01 06 30.0000000  0  7G16G18G19G21G22G27G31
  21102068.360   110892136.18209  21102064.980    86409444.50348
  22266881.360   117013315.79309  22266878.780    91179221.20647
  24308749.160   127743344.05407  24308747.000    99540258.02945
  21825159.680   114691993.39909  21825155.960    89370372.98748
  23090604.900   121341992.97308  23090601.280    94552198.62547
  22209778.340   116713219.23609  22209778.120    90945380.16548
  23521871.940   123608235.17708  23521870.740    96318083.26846
 15 02 17 01 07  0.0000000  0  7G16G18G19G21G22G27G31
  21091535.220   110836784.10009  21091531.860    86366313.01948
  22259025.720   116972034.35209  22259023.200    91147053.87647
  24294392.900   127667901.21707  24294390.780    99481471.45445
  21835703.380   114747401.07409  21835699.720    89413547.80148
  23073938.380   121254410.31608  23073934.860    94483952.47547
  22199420.060   116658786.51709  22199419.920    90902965.08248
  23540210.620   123704605.20509  23540209.480    96393176.73047
 15 02 17 01 07 30.0000000  0  7G16G18G19G21G22G27G31
  21081067.660   110781776.58509  21081064.280    86323450.01448
  22251244.200   116931142.50109  22251241.760    91115190.11647
  24280052.600   127592541.75407  24280050.480    99422749.82946
  21846293.800   114803054.22009  21846290.200    89456913.88248
  23057296.380   121166956.96408  23057292.960    94415807.06747
  22189083.040   116604465.56709  22189083.000    90860637.09148
  23558562.900   123801046.54609  23558561.780    96468325.78047
 15 02 17 01 08  0.0000000  0  7G16G18G19G21G22G27G31
  21070666.560   110727118.33109  21070663.180    86280859.17548
  22243537.680   116890644.44909  22243535.260    91083633.21947
  24265728.580   127517268.57807  24265726.440    99364095.49346
  21856931.140   114858953.93509  21856927.580    89500472.09948
  23040680.120   121079638.33009  23040676.740    94347766.64747
  22178767.880   116550259.30909  22178767.820    90818398.47148
  23576928.800   123897559.24808  23576927.560    96543530.44247
 15 02 17 01 08 30.0000000  0  7G16G18G19G21G22G27G31
  21060331.900   110672809.46009  21060328.540    86238540.57448
  22235906.120   116850539.75309  22235903.500    91052382.81747
  24251420.460   127442079.40707  24251418.440    99305506.60446
  21867614.600   114915095.92509  21867611.060    89544219.10348
  23024089.620   120992454.94009  23024086.220    94279831.61247
  22168474.080   116496165.48509  22168474.080    90776247.46648
  23595307.160   123994138.11308  23595306.020    96618786.63747
 15 02 17 01 09  0.0000000  0  7G16G18G19G21G22G27G31
  21050063.940   110618851.00809  21050060.580    86196495.03348
  22228349.820   116810830.46109  22228347.080    91021440.52647
  24237128.200   127366973.28408  24237126.200    99246982.44446
  21878343.700   114971477.47609  21878340.060    89588152.77348
  23007525.240   120905408.88509  23007521.820    94212003.56247
  22158201.600   116442183.25609  22158201.540    90734183.41048
  23613697.280   124090778.97708  23613696.240    96694091.12547
 15 02 17 01 09 30.0000000  0  7G16G18G19G21G22G27G31
  21039863.100   110565245.26609  21039859.740    86154724.32548
  22220868.880   116771517.64809  22220866.100    90990807.17847
  24222851.880   127291950.13308  24222849.700    99188522.88346
  21889118.060   115028096.74409  21889114.340    89632271.67348
  22990987.460   120818502.60708  22990984.160    94144284.44747
  22147950.400   116388312.52709  22147950.240    90692206.22448
  23632098.840   124187479.47808  23632097.880    96769442.09347
 15 02 17 01 10  0.0000000  0  7G16G18G19G21G22G27G31
  21029730.400   110511997.46009  21029727.040    86113232.53148
  22213464.280   116732606.32009  22213461.440    90960486.68147
  24208592.000   127217013.15408  24208589.640    99130130.48546
  21899937.840   115084954.56809  21899934.000    89676576.47048
  22974477.460   120731742.07909  22974474.120    94076678.91747
  22137720.980   116334556.56709  22137720.820    90650318.48848
  23650511.700   124284239.50808  23650510.760    96844839.42547
 15 02 17 01 10 30.0000000  0  7G16G18G19G21G22G27G31
  21019665.340   110459105.06609  21019661.940    86072017.67848
  22206135.420   116694093.40509  22206132.700    90930476.63447
  24194347.600   127142157.51008  24194344.980    99071801.44846
  21910801.880   115142045.19409  21910797.980    89721062.67548
  22957994.920   120645125.39409  22957991.480    94009185.47247
  22127512.480   116280910.63509  22127512.280    90608516.48348
  23668934.360   124381051.44208  23668933.540    96920277.18547
 15 02 17 01 11  0.0000000  0  7G16G18G19G21G22G27G31
  21009669.240   110406575.22909  21009665.840    86031085.33848
  22198883.800   116655986.13509  22198881.200    90900782.68347
  24180119.520   127067388.10808  24180116.840    99013539.63846
  21921710.740   115199371.65609  21921706.840    89765732.64348
  22941541.300   120558660.52509  22941537.740    93941810.30347
  22117325.860   116227379.97109  22117325.700    90566804.30148
  23687367.380   124477917.63708  23687366.580    96995757.24947
 15 02 17 01 11 30.0000000  0  7G16G18G19G21G22G27G31
  20999742.080   110354407.88009  20999738.700    85990435.45148
  22191709.260   116618283.78009  22191706.620    90871404.23347
  24165907.360   126992702.79508  24165904.720    98955343.34247
  21932663.620   115256929.54509  21932659.820    89810582.93448
  22925116.580   120472347.83209  22925112.940    93874553.70747
  22107160.700   116173962.27309  22107160.580    90525180.14148
  23705809.880   124574833.10608  23705809.060    97071275.70447
 15 02 17 01 12  0.0000000  0  7G16G18G19G21G22G27G31
  20989884.620   110302606.72809  20989881.300    85950070.91548
  22184612.400   116580989.60009  22184609.720    90842343.85247
  24151711.520   126918103.19208  24151708.860    98897213.83047
  21943660.480   115314718.46809  21943656.760    89855613.25548
  22908721.600   120386191.77709  22908717.940    93807419.18547
  22097017.400   116120659.20609  22097017.320    90483645.30348
  23724261.480   124671796.52408  23724260.680    97146831.50447
 15 02 17 01 12 30.0000000  0  7G16G18G19G21G22G27G31
  20980096.880   110251171.84409  20980093.580    85909991.78548
  22177593.220   116544103.48909  22177590.540    90813601.45047
  24137531.500   126843587.04908  24137528.820    98839149.36946
  21954700.620   115372734.81109  21954696.940    89900820.79748
  22892356.560   120300193.14309  22892352.820    93740407.33647
  22086895.600   116067468.84809  22086895.520    90442198.28648
  23742721.300   124768802.99508  23742720.480    97222420.87147
 15 02 17 01 13  0.0000000  0  7G16G18G19G21G22G27G31
  20970379.180   110200104.97309  20970375.880    85870199.41348
  22170651.960   116507627.04509  22170649.200    90785178.25547
  24123367.340   126769154.17508  24123364.560    98781149.76346
  21965783.680   115430976.78409  21965780.020    89946204.13748
  22876021.940   120214354.13009  22876018.080    93673519.84147
  22076795.180   116014390.84309  22076795.140    90400838.82048
  23761188.760   124865849.10608  23761187.860    97298041.12347
 15 02 17 01 13 30.0000000  0  7G16G18G19G21G22G27G31
  20960732.060   110149409.15909  20960728.800    85830696.18248
  22163789.180   116471563.07209  22163786.380    90757076.46847
  24109219.180   126694805.47308  24109216.380    98723215.78046
  21976909.500   115489443.40009  21976905.820    89991762.53248
  22859718.400   120128678.89609  22859714.520    93606759.96147
  22066716.480   115961426.50209  22066716.360    90359567.92148
  23779663.420   124962933.15409  23779662.300    97373690.95346
 15 02 17 01 14  0.0000000  0  7G16G18G19G21G22G27G31
  20951155.780   110099085.69409  20951152.540    85791483.09248
  22157004.880   116435911.53409  22157002.180    90729296.06347
  24095086.760   126620539.63108  24095083.940    98665346.34346
  21988077.480   115548131.70209  21988073.820    90037493.66948
  22843446.200   120043168.83309  22843442.420    93540128.79447
  22056659.200   115908574.60009  22056658.960    90318384.63648
  23798144.480   125060051.07808  23798143.200    97449367.18846
 15 02 17 01 14 30.0000000  0  7G16G18G19G21G22G27G31
  20941651.240   110049139.25409  20941648.000    85752563.78248
  22150300.040   116400677.47509  22150297.400    90701840.96547
  24080970.620   126546359.43208  24080967.740    98607543.64646
  21999287.780   115607042.33609  21999284.180    90083398.04948
  22827206.600   119957829.62409  22827202.840    93473630.76847
  22046623.840   115855838.03109  22046623.520    90277291.21548
  23816631.960   125157202.97108  23816630.600    97525069.87946
 15 02 17 01 15  0.0000000  0  7G16G18G19G21G22G27G31
  20932219.060   109999572.80609  20932215.780    85713940.57648
  22143675.040   116365863.01009  22143672.440    90674712.82247
  24066870.920   126472265.61808  24066868.080    98549808.25746
  22010540.120   115666173.96109  22010536.580    90129474.62948
  22811000.200   119872664.55109  22810996.360    93407268.41747
  22036610.520   115803217.54509  22036610.180    90236288.26048
  23835125.540   125254386.78008  23835124.200    97600797.43546
 15 02 17 01 15 30.0000000  0  7G16G18G19G21G22G27G31
  20922858.540   109950383.04909  20922855.260    85675610.89148
  22137129.180   116331464.38609  22137126.600    90647908.71647
  24052786.540   126398252.84707  24052783.820    98492136.03046
  22021833.300   115725520.12509  22021829.760    90175718.39148
  22794826.440   119787671.23109  22794822.700    93341039.91147
  22026618.300   115750707.99309  22026617.920    90195371.75048
  23853623.540   125351594.05808  23853622.300    97676543.28646
 15 02 17 01 16  0.0000000  0  7G16G18G19G21G22G27G31
  20913570.520   109901574.15909  20913567.240    85637577.99048
  22130663.240   116297485.79709  22130660.640    90621431.91247
  24038718.080   126324323.47607  24038715.480    98434528.80245
  22033167.340   115785080.79609  22033163.800    90222129.29648
  22778686.260   119702854.54909  22778682.660    93274949.03747
  22016647.600   115698311.72409  22016647.240    90154543.50548
  23872125.880   125448824.55908  23872124.620    97752307.21646
 15 02 17 01 16 30.0000000  0  7G16G18G19G21G22G27G31
  20904355.440   109853148.67909  20904352.160    85599843.85148
  22124277.520   116263929.10809  22124274.920    90595283.85747
  24024665.600   126250477.63907  24024663.000    98376986.62646
  22044541.880   115844854.56309  22044538.320    90268706.24848
  22762580.340   119618217.68809  22762576.720    93208998.28647
  22006698.520   115646029.13409  22006698.220    90113803.84148
  23890632.020   125546075.49608  23890631.000    97828087.05546
 15 02 17 01 17  0.0000000  0  7G16G18G19G21G22G27G31
  20895213.560   109805108.00609  20895210.320    85562409.55548
  22117972.260   116230795.07209  22117969.680    90569465.13347
  24010628.940   126176714.67208  24010626.240    98319509.04045
  22055956.460   115904838.87209  22055952.940    90315447.25648
  22746509.100   119533762.77309  22746505.460    93143189.30447
  21996770.960   115593859.63609  21996770.660    90073152.30048
  23909141.520   125643343.48508  23909140.660    97903880.17047
 15 02 17 01 17 30.0000000  0  7G16G18G19G21G22G27G31
  20886145.860   109757456.87109  20886142.660    85525278.80448
  22111748.280   116198088.18009  22111745.780    90543979.26247
  23996608.540   126103036.98008  23996605.660    98262097.89946
  22067411.320   115965034.79109  22067407.800    90362353.16348
  22730473.380   119449495.06909  22730469.740    93077526.22347
  21986865.440   115541805.96309  21986865.140    90032591.01548
  23927654.220   125740628.23608  23927653.520    97979686.35347
 15 02 17 01 18  0.0000000  0  7G16G18G19G21G22G27G31
  20877152.520   109710196.42709  20877149.360    85488452.48048
  22105605.600   116165808.34509  22105603.180    90518826.15247
  23982604.160   126029443.74808  23982601.140    98204752.59946
  22078905.780   116025438.66408  22078902.240    90409421.10248
  22714473.700   119365416.53209  22714470.100    93012010.52448
  21976981.860   115489867.35509  21976981.540    89992119.38348
  23946169.500   125837926.10308  23946168.900    98055502.74647
 15 02 17 01 18 30.0000000  0  7G16G18G19G21G22G27G31
  20868233.460   109663326.37909  20868230.260    85451930.35948
  22099544.200   116133955.43109  22099541.760    90494005.70847
  23968615.440   125955932.63608  23968612.380    98147471.26845
  22090439.300   116086047.47709  22090435.720    90456648.73447
  22698510.100   119281527.22709  22698506.460    92946642.27147
  21967119.760   115438041.50409  21967119.380    89951735.60548
  23964686.260   125935231.96908  23964685.720    98131325.35347
 15 02 17 01 19  0.0000000  0  7G16G18G19G21G22G27G31
  20859389.140   109616849.06709  20859385.920    85415714.26948
  22093564.540   116102531.96309  22093562.040    90469519.90747
  23954642.520   125882504.39808  23954639.400    98090254.49546
  22102011.660   116146860.09509  22102008.020    90504035.18248
  22682583.220   119197830.79209  22682579.500    92881424.31247
  21957279.300   115386329.35409  21957278.820    89911440.44348
  23983204.160   126032543.61708  23983203.580    98207152.49946
 15 02 17 01 19 30.0000000  0  7G16G18G19G21G22G27G31
  20850620.280   109570768.27809  20850617.020    85379807.15548
  22087667.060   116071540.49909  22087664.540    90445370.71747
  23940685.540   125809159.79708  23940682.320    98033102.90046
  22113622.500   116207875.10909  22113618.860    90551579.33048
  22666693.780   119114331.44709  22666690.120    92816359.93547
  21947460.680   115334732.11809  21947460.140    89871234.81348
  24001722.820   126129859.47008  24001722.180    98282982.89447
 15 02 17 01 20  0.0000000  0  7G16G18G19G21G22G27G31
  20841927.580   109525087.61309  20841924.260    85344211.82648
  22081852.360   116040984.05009  22081849.900    90421560.51347
  23926744.880   125735900.78508  23926741.600    97976018.00746
  22125271.780   116269092.50109  22125268.200    90599281.18448
  22650842.700   119031033.49909  22650838.980    92751452.48447
  21937664.260   115283251.61809  21937663.700    89831120.15448
  24020242.080   126227178.32508  24020241.500    98358815.61947
 15 02 17 01 20 30.0000000  0  7G16G18G19G21G22G27G31
  20833311.320   109479808.36709  20833307.920    85308929.29448
  22076120.480   116010862.75709  22076118.040    90398089.38547
  23912820.260   125662726.19208  23912816.980    97918998.89746
  22136959.060   116330509.61408  22136955.520    90647138.66048
  22635030.260   118947938.80009  22635026.500    92686703.40447
  21927889.920   115231887.15909  21927889.360    89791095.91348
  24038761.320   126324496.66308  24038760.780    98434647.94347
 15 02 17 01 21  0.0000000  0  7G16G18G19G21G22G27G31
  20824771.320   109434930.01009  20824767.900    85273959.13948
  22070471.320   115981176.19709  22070468.900    90374957.01147
  23898911.280   125589633.91208  23898908.040    97862043.93146
  22148683.620   116392122.73208  22148680.140    90695148.87048
  22619256.540   118865047.86209  22619252.820    92622113.10247
  21918137.240   115180636.57709  21918136.700    89751160.40548
  24057279.420   126421809.43708  24057279.040    98510475.91246
 15 02 17 01 21 30.0000000  0  7G16G18G19G21G22G27G31
  20816308.080   109390455.34909  20816304.680    85239303.55848
  22064905.340   115951926.80409  22064902.800    90352165.29147
  23885018.140   125516624.92108  23885014.820    97805153.84546
  22160445.300   116453930.93508  22160441.880    90743311.09448
  22603522.260   118782364.08309  22603518.560    92557684.22247
  21908406.420   115129500.81009  21908405.900    89711314.36848
  24075796.100   126519114.48208  24075795.720    98586297.88446
 15 02 17 01 22  0.0000000  0  7G16G18G19G21G22G27G31
  20807922.320   109346387.88309  20807918.940    85204965.27048
  22059423.180   115923117.54309  22059420.480    90329716.51847
  23871141.040   125443700.40208  23871137.760    97748329.59647
  22172243.940   116515933.37508  22172240.600    90791624.66048
  22587828.300   118699891.70609  22587824.460    92493420.06747
  21898697.780   115078481.57009  21898697.260    89671559.12948
  24094311.080   126616410.43608  24094310.520    98662112.75246
 15 02 17 01 22 30.0000000  0  7G16G18G19G21G22G27G31
  20799614.280   109302728.79409  20799610.920    85170945.19448
  22054024.780   115894748.41809  22054022.020    90307610.72147
  23857279.740   125370859.21808  23857276.560    97691570.28347
  22184079.100   116578127.45308  22184075.800    90840087.57048
  22572174.900   118617632.52309  22572171.020    92429322.04647
  21889011.120   115027577.85709  21889010.620    89631893.91248
  24112823.620   126713693.64708  24112823.020    98737917.72446
 15 02 17 01 23  0.0000000  0  7G16G18G19G21G22G27G31
  20791384.540   109259481.12909  20791381.160    85137245.71948
  22048710.660   115866822.18509  22048707.760    90285850.02847
  23843434.540   125298102.74208  23843431.500    97634876.97447
  22195950.620   116640512.59608  22195947.300    90888699.35448
  22556562.700   118535590.27909  22556558.800    92365393.06547
  21879346.680   114976791.27609  21879346.260    89592319.96848
  24131333.440   126810962.84308  24131332.920    98813711.76546
 15 02 17 01 23 30.0000000  0  7G16G18G19G21G22G27G31
  20783233.400   109216646.60109  20783230.020    85103868.16648
  22043481.020   115839339.97009  22043478.060    90264435.32347
  23829605.400   125225430.66808  23829602.480    97578249.44547
  22207858.100   116703086.60508  22207854.760    90937458.30748
  22540992.320   118453767.51909  22540988.400    92301635.09747
  21869704.520   114926121.49409  21869704.140    89552837.03548
  24149839.800   126908214.52908  24149839.500    98889492.13045
 15 02 17 01 24  0.0000000  0  7G16G18G19G21G22G27G31
  20775160.820   109174224.84909  20775157.420    85070812.25348
  22038335.660   115812300.93409  22038332.780    90243365.95947
  23815791.840   125152840.75008  23815789.020    97521685.94646
  22219800.760   116765845.55208  22219797.380    90986361.37748
  22525463.940   118372164.73809  22525459.880    92238048.54748
  21860084.160   114875566.37909  21860083.800    89513443.44748
  24168341.880   127005443.84908  24168341.660    98965255.03445
 15 02 17 01 24 30.0000000  0  7G16G18G19G21G22G27G31
  20767167.580   109132220.14709  20767164.160    85038081.31248
  22033275.320   115785708.59209  22033272.400    90222644.65347
  23801994.320   125080335.02908  23801991.620    97465188.05347
  22231778.660   116828789.77008  22231775.280    91035408.80948
  22509978.340   118290786.85609  22509974.200    92174637.25147
  21850486.080   114825128.42209  21850485.760    89474141.15148
  24186839.760   127102650.36608  24186839.640    99041000.22445
 15 02 17 01 25  0.0000000  0  7G16G18G19G21G22G27G31
  20759253.900   109090633.52609  20759250.460    85005676.14648
  22028300.100   115759563.25109  22028297.140    90202271.67047
  23788212.740   125007912.77908  23788210.080    97408755.19946
  22243791.320   116891916.77208  22243787.940    91084598.66247
  22494535.840   118209635.77109  22494531.720    92111402.67747
  21840910.200   114774807.06209  21840909.900    89434929.70648
  24205332.660   127199830.47808  24205332.640    99116724.86646
 15 02 17 01 25 30.0000000  0  7G16G18G19G21G22G27G31
  20751420.240   109049467.57509  20751416.860    84973598.78848
  22023410.420   115733867.38309  22023407.440    90182248.92947
  23774447.160   124935574.35707  23774444.380    97352387.64047
  22255838.480   116955225.33308  22255835.140    91133930.00048
  22479137.100   118128714.79609  22479132.880    92048347.40248
  21831356.660   114724603.03309  21831356.420    89395809.70448
  24223819.980   127296981.67508  24223819.900    99192426.92546
 15 02 17 01 26  0.0000000  0  7G16G18G19G21G22G27G31
  20743667.240   109008725.42709  20743663.880    84941851.65648
  22018606.600   115708623.12309  22018603.600    90162578.08747
  23760697.720   124863321.04808  23760694.900    97296086.42846
  22267919.980   117018714.45108  22267916.640    91183402.02847
  22463782.860   118048027.93109  22463778.580    91985474.56148
  21821825.700   114674517.66809  21821825.480    89356782.14548
  24242301.660   127394102.79708  24242301.640    99268105.59346
 15 02 17 01 26 30.0000000  0  7G16G18G19G21G22G27G31
  20735994.540   108968405.22909  20735991.220    84910433.32048
  22013888.220   115683827.97609  22013885.180    90143257.19347
  23746963.840   124791149.17108  23746961.000    97239848.66846
  22280034.940   117082379.12408  22280031.600    91233010.85247
  22448472.880   117967574.08409  22448468.700    91922783.29548
  21812316.620   114624547.41009  21812316.400    89317844.29948
  24260776.420   127491187.36708  24260776.560    99343755.77847
 15 02 17 01 27  0.0000000  0  7G16G18G19G21G22G27G31
  20728403.000   108928511.31209  20728399.660    84879347.14748
  22009255.860   115659485.26209  22009252.940    90124288.86347
  23733245.960   124719060.93108  23733243.080    97183676.06846
  22292183.380   117146219.55209  22292180.020    91282756.63447
  22433208.220   117887358.08009  22433204.040    91860277.35548
  21802829.920   114574694.78609  21802829.720    89278998.11748
  24279244.180   127588234.82908  24279244.400    99419377.05647
 15 02 17 01 27 30.0000000  0  7G16G18G19G21G22G27G31
  20720892.480   108889043.15509  20720889.120    84848592.73148
  22004709.400   115635594.02609  22004706.580    90105672.31647
  23719543.520   124647053.69208  23719540.520    97127566.56046
  22304364.560   117210231.78509  22304361.160    91332636.28447
  22417988.880   117807380.00809  22417984.660    91797956.80648
  21793365.280   114524957.51409  21793365.040    89240241.80248
  24297703.800   127685239.84908  24297703.960    99494965.26747
 15 02 17 01 28  0.0000000  0  7G16G18G19G21G22G27G31
  20713464.720   108850010.03709  20713461.360    84818177.30748
  22000250.540   115612163.02709  22000247.860    90087414.40047
  23705857.960   124575135.11308  23705854.760    97071526.13846
  22316579.540   117274421.69909  22316576.100    91382654.38047
  22402816.840   117727650.49209  22402812.640    91735829.93748
  21783924.000   114475343.31409  21783923.780    89201581.39248
  24316156.200   127782207.27708  24316156.280    99570524.23247
 15 02 17 01 28 30.0000000  0  7G16G18G19G21G22G27G31
  20706118.940   108811407.68609  20706115.540    84788097.55848
  21995878.340   115589187.17909  21995875.720    90069511.15647
  23692188.040   124503298.98308  23692184.660    97015549.97546
  22328826.760   117338781.03109  22328823.320    91432804.50047
  22387691.440   117648165.91309  22387687.220    91673893.93648
  21774505.040   114425846.21609  21774504.760    89163012.24148
  24334599.740   127879128.39708  24334599.820    99646047.12647
 15 02 17 01 29  0.0000000  0  7G16G18G19G21G22G27G31
  20698855.880   108773240.03509  20698852.480    84758356.52948
  21991593.440   115566669.46509  21991590.760    90051964.88848
  23678534.140   124431547.18908  23678530.640    96959639.49946
  22341106.280   117403310.02109  22341102.820    91483086.82047
  22372613.560   117568930.99809  22372609.240    91612152.46848
  21765108.820   114376468.67009  21765108.480    89124536.24248
  24353034.360   127976002.33308  24353034.420    99721533.24246
 15 02 17 01 29 30.0000000  0  7G16G18G19G21G22G27G31
  20691675.280   108735505.87209  20691671.940    84728953.27748
  21987395.380   115544608.31309  21987392.740    90034774.39247
  23664895.720   124359876.59808  23664892.160    96903792.31546
  22353417.080   117468003.69008  22353413.680    91533497.45947
  22357582.960   117489944.92409  22357578.640    91550604.91748
  21755734.740   114327207.48409  21755734.340    89086150.91048
  24371458.740   128072823.05608  24371458.920    99796977.89646
 15 02 17 01 30  0.0000000  0  7G16G18G19G21G22G27G31
  20684578.200   108698210.50209  20684574.920    84699891.94548
  21983285.060   115523008.42009  21983282.400    90017943.31947
  23651273.540   124288291.44008  23651269.840    96848011.68846
  22365759.600   117532864.23908  22365756.320    91584038.13447
  22342601.040   117411214.73709  22342596.760    91489256.75048
  21746383.640   114278066.85409  21746383.200    89047859.52348
  24389873.300   128169592.12008  24389873.500    99872382.24447
 15 02 17 01 30 30.0000000  0  7G16G18G19G21G22G27G31
  20677565.220   108661356.99609  20677561.940    84671174.91748
  21979262.880   115501871.92909  21979260.200    90001473.33047
  23637667.760   124216792.55808  23637664.000    96792298.29746
  22378133.680   117597890.87008  22378130.540    91634708.21847
  22327668.520   117332743.97009  22327664.240    91428110.72248
  21737055.720   114229047.89709  21737055.180    89009662.94248
  24408277.560   128266307.64207  24408277.940    99947744.75146
 15 02 17 01 31  0.0000000  0  7G16G18G19G21G22G27G31
  20670636.420   108624945.72009  20670633.120    84642802.48248
  21975328.720   115481198.16009  21975326.080    89985363.91047
  23624078.000   124145378.13608  23624074.280    96736650.71946
  22390538.800   117663080.40008  22390535.760    91685505.24647
  22312785.420   117254533.18709  22312781.160    91367167.29348
  21727750.680   114180149.32909  21727750.040    88971560.16948
  24426670.680   128362965.40707  24426671.320   100023062.36745
 15 02 17 01 31 30.0000000  0  7G16G18G19G21G22G27G31
  20663791.560   108588975.50609  20663788.200    84614773.74248
  21971482.320   115460985.45709  21971479.660    89969613.76847
  23610503.740   124074045.28608  23610500.240    96681066.72947
  22402973.920   117728427.59909  22402970.920    91736425.13147
  22297951.820   117176582.46109  22297947.640    91306426.50848
  21718467.960   114131368.29809  21718467.320    88933549.00048
  24445052.060   128459559.95008  24445052.340   100098330.97845
 15 02 17 01 32  0.0000000  0  7G16G18G19G21G22G27G31
  20657031.440   108553450.85409  20657028.100    84587092.18548
  21967724.420   115441237.46209  21967721.680    89954225.71847
  23596945.420   124002796.50708  23596942.100    96625548.23647
  22415439.360   117793934.05109  22415436.380    91787469.09347
  22283168.780   117098897.16209  22283164.620    91245892.53548
  21709208.160   114082707.83709  21709207.560    88895631.77048
  24463421.300   128556090.89007  24463421.560   100173549.85545
 15 02 17 01 32 30.0000000  0  7G16G18G19G21G22G27G31
  20650356.680   108518374.91709  20650353.420    84559760.28049
  21964055.440   115421956.53209  21964052.620    89939201.62147
  23583403.320   123931633.10808  23583400.240    96570096.27647
  22427934.980   117859598.86708  22427931.940    91838636.47847
  22268437.020   117021481.34509  22268432.920    91185568.55148
  21699971.600   114034169.56009  21699970.980    88857809.75048
  24481778.100   128652557.11908  24481778.700   100248718.34745
 15 02 17 01 33  0.0000000  0  7G16G18G19G21G22G27G31
  20643767.040   108483746.37709  20643763.820    84532776.99449
  21960474.920   115403141.00909  21960472.100    89924540.18047
  23569876.980   123860552.18408  23569873.940    96514708.57846
  22440459.860   117925417.37509  22440456.760    91889923.60947
  22253756.380   116944334.24009  22253752.360    91125453.94648
  21690757.800   113985750.84309  21690757.200    88820080.88848
  24500121.720   128748952.67808  24500122.040   100323831.82744
 15 02 17 01 33 30.0000000  0  7G16G18G19G21G22G27G31
  20637262.780   108449566.39109  20637259.640    84506143.22849
  21956982.940   115384790.97909  21956980.260    89910241.46847
  23556366.380   123789553.49708  23556363.300    96459384.96946
  22453013.580   117991387.45609  22453010.400    91941328.85647
  22239127.300   116867458.19509  22239123.260    91065550.55648
  21681566.700   113937451.33609  21681566.120    88782444.91948
  24518451.380   128845274.46408  24518451.220   100398887.81146
 15 02 17 01 34  0.0000000  0  7G16G18G19G21G22G27G31
  20630845.100   108415841.19209  20630841.980    84479863.84249
  21953580.480   115366911.62009  21953578.000    89896309.51247
  23542872.160   123718641.12608  23542869.140    96404128.61747
  22465596.660   118057511.80109  22465593.420    91992854.30147
  22224551.100   116790860.09609  22224547.060    91005863.75548
  21672399.200   113889275.65409  21672398.560    88744905.43948
  24536767.300   128941524.31408  24536767.100   100473887.74245
 15 02 17 01 34 30.0000000  0  7G16G18G19G21G22G27G31
  20624513.840   108382570.07309  20624510.740    84453938.28948
  21950267.520   115349502.21309  21950265.080    89882743.75347
  23529393.920   123647812.94608  23529391.020    96348937.89547
  22478208.380   118123786.40309  22478205.100    92044496.83447
  22210027.940   116714540.50709  22210023.840    90946393.96848
  21663254.880   113841221.83809  21663254.220    88707460.91148
  24555068.540   129037697.06009  24555068.380   100548827.58047
 15 02 17 01 35  0.0000000  0  7G16G18G19G21G22G27G31
  20618269.780   108349757.00909  20618266.620    84428369.65348
  21947044.560   115332565.37009  21947042.120    89869546.21947
  23515932.000   123577070.59108  23515929.180    96293814.03947
  22490848.720   118190211.44709  22490845.380    92096256.59647
  22195558.560   116638503.72509  22195554.480    90887144.55648
  21654134.140   113793292.03709  21654133.500    88670113.02048
  24573354.860   129133791.96608  24573354.720   100623706.67646
 15 02 17 01 35 30.0000000  0  7G16G18G19G21G22G27G31
  20612112.260   108317399.02809  20612109.080    84403155.63449
  21943910.840   115316097.29009  21943908.300    89856713.95947
  23502485.620   123506409.51908  23502482.760    96238753.50847
  22503516.440   118256780.18709  22503513.040    92148128.31947
  22181142.640   116562747.71909  22181138.640    90828113.93948
  21645036.140   113745481.98709  21645035.560    88632858.45448
  24591625.000   129229802.33108  24591624.980   100698519.90747
 15 02 17 01 36  0.0000000  0  7G16G18G19G21G22G27G31
  20606042.600   108285502.76809  20606039.400    84378301.40749
  21940867.440   115300103.94609  21940864.800    89844251.63047
  23489055.760   123435835.22308  23489052.760    96183760.60647
  22516212.200   118323496.17009  22516208.680    92200114.78347
  22166781.820   116487280.59909  22166777.760    90769308.41548
  21635961.940   113697797.02509  21635961.420    88595701.35548
  24609879.480   129325730.06608  24609879.500   100773268.67946
 15 02 17 01 36 30.0000000  0  7G16G18G19G21G22G27G31
  20600060.580   108254067.11709  20600057.360    84353806.09049
  21937913.920   115284583.16509  21937911.240    89832157.52347
  23475641.720   123365344.39308  23475638.620    96128832.72546
  22528935.160   118390355.41109  22528931.560    92252212.87347
  22152475.840   116412101.53909  22152471.620    90710727.34848
  21626911.000   113650234.49509  21626910.640    88558639.65048
  24628117.240   129421569.66008  24628117.300   100847948.70046
 15 02 17 01 37  0.0000000  0  7G16G18G19G21G22G27G31
  20594167.080   108223096.49909  20594163.880    84329673.13649
  21935051.100   115269538.97109  21935048.400    89820434.78647
  23462244.160   123294940.02108  23462241.020    96073972.22947
  22541685.460   118457358.50509  22541681.800    92304423.06247
  22138225.660   116337215.98509  22138221.400    90652374.98948
  21617883.940   113602797.47909  21617883.680    88521675.76048
  24646338.180   129517321.34907  24646338.320   100922560.17446
 15 02 17 01 37 30.0000000  0  7G16G18G19G21G22G27G31
  20588361.700   108192589.05309  20588358.520    84305901.09848
  21932278.340   115254968.21609  21932275.660    89809080.97147
  23448862.440   123224618.36108  23448859.320    96019176.17946
  22554462.000   118524499.56609  22554458.340    92356740.75947
  22124031.080   116262623.00309  22124026.800    90594250.61848
  21608880.200   113555482.61709  21608879.940    88484807.04648
  24664541.180   129612978.81006  24664541.380   100997098.18946
 15 02 17 01 38  0.0000000  0  7G16G18G19G21G22G27G31
  20582645.300   108162549.24509  20582642.120    84282493.45549
  21929596.420   115240874.97209  21929593.780    89798099.22847
  23435497.080   123154382.51008  23435493.880    95964446.99447
  22567265.060   118591780.28409  22567261.440    92409167.27547
  22109893.260   116188327.98209  22109888.860    90536358.41048
  21599900.340   113508293.27309  21599900.100    88448036.13948
  24682726.340   129708542.53307  24682726.800   101071563.14846
 15 02 17 01 38 30.0000000  0  6G16G18G19G21G22G27
  20577015.020   108132961.90509  20577011.820    84259438.36848
  21927002.300   115227242.95809  21926999.700    89787476.89147
  23422144.720   123084215.49208  23422141.420    95909771.44546
  22580091.220   118659182.34409  22580087.680    92461688.34047
  22095809.420   116114316.67509  22095804.900    90478687.28648
  21590941.260   113461212.88009  21590940.960    88411350.11648
 15 02 17 01 39  0.0000000  0  6G16G18G19G21G22G27
  20571477.000   108103859.28509  20571473.780    84236760.99849
  21924502.020   115214103.90609  21924499.460    89777238.67747
  23408811.380   123014148.42508  23408808.000    95855173.76547
  22592946.060   118726735.07408  22592942.560    92514326.81647
  22081785.920   116040622.60109  22081781.300    90421263.34748
  21582008.840   113414272.79809  21582008.560    88374773.43548
 15 02 17 01 39 30.0000000  0  6G16G18G19G21G22G27
  20566028.820   108075228.62709  20566025.580    84214451.38849
  21922092.760   115201443.20209  21922090.200    89767373.20347
  23395494.240   122944166.16408  23395490.740    95800642.16247
  22605826.300   118794421.51508  22605822.860    92567069.48147
  22067820.340   115967233.13809  22067815.680    90364076.77448
  21573100.320   113367458.24109  21573100.100    88338294.56448
 15 02 17 01 40  0.0000000  0  6G16G18G19G21G22G27
  20560670.720   108047071.29109  20560667.440    84192510.61349
  21919774.820   115189262.07409  21919772.200    89757881.43247
  23382193.240   122874268.71408  23382189.680    95746176.66547
  22618731.660   118862239.85509  22618728.260    92619914.93247
  22053913.240   115894151.22309  22053908.620    90307129.86148
  21564215.700   113320769.44209  21564215.480    88301913.70048
 15 02 17 01 40 30.0000000  0  6G16G18G19G21G22G27
  20555403.240   108019390.21309  20555399.920    84170940.94449
  21917548.460   115177562.10509  21917545.740    89748764.59047
  23368908.600   122804457.33308  23368905.000    95691778.22847
  22631662.100   118930189.92308  22631658.780    92672863.02747
  22040065.240   115821380.29809  22040060.720    90250425.27748
  21555355.340   113274208.14609  21555355.140    88265632.18548
 15 02 17 01 41  0.0000000  0  6G16G18G19G21G22G27
  20550226.460   107992186.09709  20550223.160    84149742.93049
  21915413.740   115166343.66609  21915410.900    89740022.95547
  23355640.160   122734731.48108  23355636.560    95637446.43047
  22644617.120   118998269.18808  22644613.820    92725911.79347
  22026276.740   115748922.04809  22026272.240    90193964.32948
  21546519.220   113227773.92309  21546519.000    88229449.68348
 15 02 17 01 41 30.0000000  0  6G16G18G19G21G22G27
  20545140.560   107965459.52309  20545137.280    84128917.02649
  21913370.560   115155606.63009  21913367.720    89731656.45247
  23342387.820   122665090.51108  23342384.280    95583180.78247
  22657596.300   119066475.40008  22657593.020    92779059.47647
  22012548.160   115676778.29409  22012543.760    90137748.43748
  21537707.200   113181466.35309  21537706.960    88193365.87548
 15 02 17 01 42  0.0000000  0  6G16G18G19G21G22G27
  20540146.360   107939214.86209  20540143.120    84108466.63649
  21911419.600   115145354.30309  21911416.720    89723667.62347
  23329152.100   122595537.08508  23329148.700    95528983.36246
  22670599.780   119134809.28808  22670596.500    92832306.64747
  21998880.540   115604954.67309  21998876.220    90081782.01148
  21528919.860   113135288.64309  21528919.660    88157383.25248
 15 02 17 01 42 30.0000000  0  6G16G18G19G21G22G27
  20535243.720   107913451.17309  20535240.440    84088391.02849
  21909560.440   115135584.39309  21909557.560    89716054.71947
  23315932.540   122526068.43508  23315929.160    95474851.98547
  22683626.660   119203265.96709  22683623.360    92885649.49447
  21985273.640   115533450.21809  21985269.480    90026064.28248
  21520156.740   113089238.16609  21520156.500    88121499.76748
 15 02 17 01 43  0.0000000  0  6G16G18G19G21G22G27
  20530432.540   107888168.02309  20530429.220    84068689.87249
  21907792.820   115126295.55309  21907789.960    89708816.66647
  23302728.820   122456682.62808  23302725.240    95420785.14747
  22696676.480   119271843.00108  22696673.140    92939086.13347
  21971727.700   115462265.97009  21971723.540    89970596.05748
  21511417.600   113043313.49109  21511417.300    88085714.30548
 15 02 17 01 43 30.0000000  0  6G16G18G19G21G22G27
  20525713.840   107863370.97609  20525710.520    84049367.49849
  21906117.680   115117493.01209  21906114.880    89701957.56947
  23289541.760   122387384.51208  23289538.260    95366786.67747
  22709749.600   119340542.39708  22709746.200    92992618.11847
  21958244.080   115391408.77109  21958239.820    89915382.68248
  21502703.280   112997519.43309  21502702.960    88050030.63348
 15 02 17 01 44  0.0000000  0  6G16G18G19G21G22G27
  20521087.040   107839057.31209  20521083.780    84030421.78649
  21904534.440   115109173.44709  21904531.680    89695474.79747
  23276370.580   122318169.91208  23276367.220    95312853.28047
  22722845.140   119409359.61408  22722841.760    93046241.90747
  21944822.340   115320877.23609  21944818.160    89860423.07948
  21494013.140   112951852.67809  21494012.840    88014446.16348
 15 02 17 01 44 30.0000000  0  6G16G18G19G21G22G27
  20516553.400   107815233.18009  20516550.180    84011857.52349
  21903043.940   115101340.80309  21903041.140    89689371.44947
  23263216.020   122249042.16908  23263212.700    95258987.55147
  22735963.340   119478295.74008  22735959.940    93099958.34847
  21931463.700   115250677.05309  21931459.600    89805721.66948
  21485347.940   112906316.85809  21485347.640    87978963.70248
 15 02 17 01 45  0.0000000  0  6G16G18G19G21G22G27
  20512112.540   107791896.33509  20512109.340    83993672.96349
  21901645.620   115093992.27709  21901642.740    89683645.33347
  23250077.480   122179998.61308  23250074.040    95205187.42047
  22749103.140   119547345.51808  22749099.700    93153763.35247
  21918168.080   115180807.69209  21918163.840    89751278.02548
  21476707.180   112860909.33609  21476706.880    87943581.22448
 15 02 17 01 45 30.0000000  0  6G16G18G19G21G22G27
  20507765.940   107769054.78009  20507762.760    83975874.34048
  21900340.880   115087135.36509  21900337.900    89678302.29147
  23236956.180   122111045.87308  23236952.640    95151458.05847
  22762265.680   119616514.92008  22762262.180    93207661.57747
  21904937.040   115111278.30709  21904932.720    89697099.30648
  21468092.140   112815637.11909  21468091.840    87908304.17348
 15 02 17 01 46  0.0000000  0  6G16G18G19G21G22G27
  20503512.440   107746702.37109  20503509.260    83958456.87649
  21899128.380   115080763.43009  21899125.400    89673337.15747
  23223850.800   122042176.71008  23223847.240    95097793.82847
  22775449.220   119685794.85108  22775445.740    93261645.92247
  21891769.680   115042084.06209  21891765.460    89643181.74148
  21459501.600   112770493.50809  21459501.300    87873127.34248
 15 02 17 01 46 30.0000000  0  6G16G18G19G21G22G27
  20499352.580   107724842.09809  20499349.400    83941422.89649
  21898008.320   115074877.64009  21898005.420    89668750.84147
  23210761.580   121973392.24208  23210758.040    95044195.60347
  22788653.600   119755184.41808  22788650.140    93315715.70047
  21878666.900   114973228.40909  21878662.700    89589528.00648
  21450935.740   112725479.68909  21450935.440    87838051.65148
 15 02 17 01 47  0.0000000  0  6G16G18G19G21G22G27
  20495287.480   107703479.88809  20495284.300    83924777.02149
  21896981.760   115069483.14709  21896978.920    89664547.35048
  23197689.460   121904697.48908  23197685.840    94990667.25847
  22801879.400   119824686.63908  22801875.940    93369873.25347
  21865629.900   114904718.39609  21865625.600    89536143.60948
  21442395.660   112680601.00009  21442395.300    87803081.24448
 15 02 17 01 47 30.0000000  0  6G16G18G19G21G22G27
  20491316.660   107682613.09609  20491313.460    83908517.18549
  21896048.020   115064576.30709  21896045.220    89660723.85148
  23184633.500   121836087.83508  23184629.820    94937205.22947
  22815125.680   119894296.39708  22815122.260    93424114.60647
  21852658.320   114836552.67509  21852653.960    89483027.49148
  21433880.600   112635853.72209  21433880.220    87768213.24348
 15 02 17 01 48  0.0000000  0  6G16G18G19G21G22G27
  20487441.200   107662247.14309  20487437.920    83892647.60149
  21895207.920   115060161.71809  21895205.140    89657283.91748
  23171594.600   121767568.05808  23171590.860    94883813.24147
  22828392.840   119964015.75908  22828389.460    93478441.36647
  21839753.540   114768737.66109  21839749.040    89430184.63648
  21425391.460   112591242.66709  21425391.020    87733451.38648
 15 02 17 01 48 30.0000000  0  6G16G18G19G21G22G27
  20483660.580   107642379.49609  20483657.200    83877166.31649
  21894460.840   115056235.91709  21894458.000    89654224.86048
  23158572.060   121699134.29308  23158568.300    94830488.27447
  22841679.860   120033839.63408  22841676.540    93532849.55947
  21826915.160   114701271.46409  21826910.720    89377613.59948
  21416927.520   112546764.11209  21416927.020    87698792.78048
 15 02 17 01 49  0.0000000  0  6G16G18G19G21G22G27
  20479975.060   107623011.69709  20479971.640    83862074.52149
  21893806.940   115052799.65509  21893804.020    89651547.25948
  23145565.840   121630786.48708  23145562.060    94777230.28447
  22854986.460   120103766.36808  22854983.140    93587337.90046
  21814143.600   114634156.75509  21814139.320    89325316.45848
  21408488.880   112502418.71809  21408488.300    87664237.93248
 15 02 17 01 49 30.0000000  0  6G16G18G19G21G22G27
  20476385.160   107604146.83509  20476381.820    83847374.62249
  21893246.600   115049854.98209  21893243.680    89649252.72248
  23132576.300   121562526.63008  23132572.520    94724040.83847
  22868312.660   120173796.36808  22868309.400    93641906.71447
  21801439.740   114567397.73009  21801435.360    89273296.46848
  21400076.020   112458208.72409  21400075.380    87629788.59248
 15 02 17 01 50  0.0000000  0  6G16G18G19G21G22G27
  20472891.120   107585785.77809  20472887.860    83833067.29849
  21892779.700   115047401.65809  21892776.900    89647341.05148
  23119603.560   121494354.80208  23119599.760    94670919.98047
  22881658.120   120243927.46008  22881654.880    93696554.29747
  21788804.060   114500996.45009  21788799.520    89221555.22348
  21391688.980   112414134.35009  21391688.260    87595444.93348
 15 02 17 01 50 30.0000000  0  6G16G18G19G21G22G27
  20469492.680   107567926.89709  20469489.400    83819151.29049
  21892405.820   115045437.16309  21892403.060    89645810.29648
  23106647.080   121426268.23408  23106643.280    94617865.54747
  22895022.040   120314155.48808  22895018.860    93751277.42047
  21776236.320   114434952.63309  21776231.820    89170092.54148
  21383327.260   112370193.29909  21383326.540    87561205.16148
 15 02 17 01 51  0.0000000  0  6G16G18G19G21G22G27
  20466191.820   107550580.66809  20466188.480    83805634.73849
  21892126.760   115043970.74309  21892124.000    89644667.63748
  23093708.420   121358275.48808  23093704.680    94564884.23547
  22908405.680   120384486.93608  22908402.600    93806081.11947
  21763738.660   114369277.04409  21763734.220    89118916.78448
  21374992.640   112326394.66009  21374991.940    87527076.35549
 15 02 17 01 51 30.0000000  0  6G16G18G19G21G22G27
  20462986.900   107533738.30109  20462983.460    83792510.81348
  21891940.660   115042992.79709  21891937.900    89643905.61548
  23080785.780   121290367.26508  23080782.180    94511968.77647
  22921807.160   120454911.97608  22921804.020    93860957.74647
  21751309.820   114303962.55209  21751305.200    89068022.39148
  21366683.380   112282729.37509  21366682.740    87493051.47848
 15 02 17 01 52  0.0000000  0  6G16G18G19G21G22G27
  20459878.940   107517405.84209  20459875.500    83779784.22049
  21891848.360   115042507.95109  21891845.580    89643527.82647
  23067880.120   121222548.18408  23067876.580    94459122.79447
  22935226.860   120525432.57608  22935223.700    93915908.85146
  21738950.920   114239015.97609  21738946.160    89017414.69648
  21358400.400   112239202.33309  21358399.800    87459134.31148
 15 02 17 01 52 30.0000000  0  6G16G18G19G21G22G27
  20456867.320   107501579.65709  20456863.860    83767452.11949
  21891849.160   115042512.13409  21891846.340    89643531.09047
  23054990.700   121154814.04908  23054987.160    94406342.97547
  22948663.740   120596043.23708  22948660.520    93970930.13146
  21726661.600   114174435.31609  21726656.900    88967092.12948
  21350143.060   112195809.85309  21350142.500    87425321.99248
 15 02 17 01 53  0.0000000  0  6G16G18G19G21G22G27
  20453953.240   107486266.27609  20453949.800    83755519.60848
  21891944.180   115043011.11009  21891941.320    89643919.90848
  23042118.360   121087169.57908  23042114.840    94353633.03647
  22962118.320   120666747.05908  22962115.080    94026024.00047
  21714443.280   114110227.55909  21714438.560    88917060.13248
  21341912.340   112152557.16909  21341911.760    87391618.60949
 15 02 17 01 53 30.0000000  0  7G04G16G18G19G21G22G27
  24601662.180   129282608.21908  24601663.540   100739699.42944
  20451137.140   107471467.74909  20451133.700    83743988.28049
  21892133.460   115044005.38709  21892130.560    89644694.68548
  23029263.240   121019616.05608  23029259.820    94300993.98847
  22975590.440   120737543.08308  22975587.120    94081189.71946
  21702296.440   114046395.72009  21702291.760    88867321.05848
  21333708.480   112109445.51809  21333707.920    87358025.12749
 15 02 17 01 54  0.0000000  0  7G04G16G18G19G21G22G27
  24582640.200   129182647.71008  24582641.820   100661808.41044
  20448420.940   107457194.19809  20448417.580    83732866.03349
  21892418.680   115045504.07009  21892415.720    89645862.49748
  23016427.260   120952162.52908  23016423.780    94248432.84347
  22989081.720   120808439.81008  22989078.360    94136433.90147
  21690223.300   113982951.54309  21690218.780    88817884.06348
  21325533.360   112066484.74909  21325532.840    87324549.21549
 15 02 17 01 54 30.0000000  0  7G04G16G18G19G21G22G27
  24563643.780   129082821.48208  24563645.220   100584021.94244
  20445799.940   107443420.81509  20445796.600    83722133.52149
  21892794.920   115047481.34609  21892792.000    89647403.24347
  23003605.440   120884783.15508  23003601.740    94195929.46347
  23002586.840   120879409.38508  23002583.400    94191734.84846
  21678219.500   113919871.18009  21678215.060    88768730.55248
  21317382.080   112023649.37109  21317381.540    87291171.00449
 15 02 17 01 55  0.0000000  0  7G04G16G18G19G21G22G27
  24544676.760   128983149.95208  24544678.300   100506356.17744
  20443277.940   107430167.69709  20443274.620    83711806.41049
  21893265.940   115049956.83509  21893263.140    89649332.21147
  22990801.300   120817497.28908  22990797.620    94143498.96247
  23016109.120   120950469.36208  23016105.680    94247106.24247
  21666288.980   113857176.00309  21666284.600    88719877.19648
  21309258.380   111980959.02809  21309257.780    87257905.80249
 15 02 17 01 55 30.0000000  0  7G04G16G18G19G21G22G27
  24525738.200   128883628.09608  24525739.880   100428806.87144
  20440854.060   107417430.31909  20440850.800    83701881.17849
  21893830.660   115052924.72709  21893827.940    89651644.87448
  22978013.800   120750299.27708  22978010.300    94091136.93447
  23029647.080   121021612.14708  23029643.720    94302542.16547
  21654430.960   113794862.15209  21654426.620    88671320.97948
  21301161.220   111938408.42009  21301160.640    87224749.50949
 15 02 17 01 56  0.0000000  0  7G04G16G18G19G21G22G27
  24506829.040   128784260.74108  24506830.840   100351378.12445
  20438529.220   107405213.26009  20438525.940    83692361.38849
  21894489.700   115056388.15309  21894486.920    89654343.65347
  22965243.780   120683192.38808  22965240.400    94038845.90247
  23043201.100   121092839.41308  23043197.860    94358043.90447
  21642646.600   113732935.19009  21642642.240    88623066.22048
  21293091.320   111896001.37209  21293090.820    87191705.06448
 15 02 17 01 56 30.0000000  0  7G04G16G18G19G21G22G27
  24487949.120   128685047.37408  24487950.900   100274069.26444
  20436303.280   107393515.83309  20436300.000    83683246.50748
  21895242.840   115060346.01909  21895240.040    89657427.71547
  22952491.040   120616175.95308  22952487.620    93986625.34747
  23056770.920   121164149.35908  23056767.720    94413610.07746
  21630936.120   113671396.62809  21630931.880    88575114.12148
  21285048.580   111853737.29509  21285048.240    87158772.03548
 15 02 17 01 57  0.0000000  0  7G04G16G18G19G21G22G27
  24469098.720   128585989.22208  24469100.560   100196881.37745
  20434176.400   107382339.00509  20434173.100    83674537.29349
  21896090.040   115064798.32509  21896087.240    89660897.05447
  22939755.360   120549249.69508  22939751.800    93934475.07947
  23070356.080   121235539.85108  23070352.860    94469239.01146
  21619299.800   113610247.99809  21619295.640    88527465.86648
  21277033.120   111811616.44609  21277032.840    87125950.61149
 15 02 17 01 57 30.0000000  0  7G04G16G18G19G21G22G27
  24450277.800   128487085.71808  24450279.560   100119813.87145
  20432148.620   107371683.00509  20432145.320    83666233.90849
  21897030.960   115069743.63109  21897028.240    89664750.55847
  22927036.700   120482412.43309  22927032.940    93882394.13147
  23083956.000   121307007.64308  23083952.660    94524928.18947
  21607738.000   113549490.40209  21607733.780    88480122.29948
  21269044.920   111769638.13209  21269044.640    87093240.24749
 15 02 17 01 58  0.0000000  0  7G04G16G18G19G21G22G27
  24431486.880   128388340.11007  24431488.740   100042869.46245
  20430220.420   107361550.40809  20430217.140    83658338.37649
  21898066.160   115075183.96909  21898063.380    89668989.78747
  22914335.480   120415666.43609  22914331.640    93830384.29547
  23097570.720   121378552.99608  23097567.320    94580677.80347
  21596251.360   113489127.83009  21596247.120    88433086.55548
  21261084.340   111727804.92309  21261084.020    87060642.95148
 15 02 17 01 58 30.0000000  0  7G04G16G18G19G21G22G27
  24412726.460   128289754.44608  24412728.380    99966049.55345
  20428392.340   107351943.70409  20428389.060    83650852.63049
  21899195.800   115081120.17109  21899193.060    89673615.40947
  22901651.720   120349012.87708  22901647.940    93778446.52347
  23111200.280   121450176.81408  23111196.880    94636488.54846
  21584840.460   113429163.20109  21584836.160    88386360.89748
  21253151.700   111686118.39209  21253151.340    87028159.95148
 15 02 17 01 59  0.0000000  0  7G04G16G18G19G21G22G27
  24393996.620   128191329.03308  24393998.540    99889354.43145
  20426664.320   107342862.88509  20426661.060    83643776.66349
  21900419.740   115087551.77709  21900416.960    89678627.06447
  22888985.380   120282451.46308  22888981.600    93726580.53947
  23124844.300   121521876.81508  23124841.000    94692358.65647
  21573505.720   113369598.78009  21573501.360    88339947.08548
  21245246.920   111644578.55909  21245246.580    86995791.27249
 15 02 17 01 59 30.0000000  0  7G04G16G18G19G21G22G27
  24375297.200   128093063.16408  24375299.100    99812783.80145
  20425036.100   107334306.51809  20425032.860    83637109.36449
  21901737.500   115094476.41309  21901734.680    89684022.89547
  22876336.160   120215979.62609  22876332.200    93674784.33547
  23138502.040   121593648.72308  23138498.820    94748284.80446
  21562247.020   113310433.83809  21562242.600    88293844.55848
  21237369.700   111603183.49409  21237369.360    86963535.38748
 15 02 17 02 00  0.0000000  0  7G04G16G18G19G21G22G27
  24356628.320   127994957.77108  24356630.140    99736338.20045
  20423507.860   107326275.52509  20423504.640    83630851.44849
  21903149.080   115101894.18209  21903146.180    89689802.98547
  22863704.200   120149597.96809  22863700.100    93623058.39547
  23152173.180   121665491.00908  23152170.000    94804265.78346
  21551064.780   113251670.52609  21551060.300    88248054.99448
  21229520.220   111561933.86409  21229519.800    86931392.83349
 15 02 17 02 00 30.0000000  0  7G04G16G18G19G21G22G27
  24337991.260   127897019.78308  24337992.940    99660022.98945
  20422080.940   107318776.87909  20422077.680    83625008.34349
  21904655.560   115109810.76209  21904652.600    89695971.75947
  22851090.500   120083312.75508  22851086.480    93571407.62547
  23165858.660   121737408.72408  23165855.440    94860305.54446
  21539960.620   113193317.39109  21539956.100    88202585.03948
  21221699.760   111520836.78609  21221699.260    86899369.14149
 15 02 17 02 01  0.0000000  0  7G04G16G18G19G21G22G27
  24319385.100   127799244.24108  24319386.740    99583834.43745
  20420754.380   107311805.54409  20420751.060    83619576.14049
  21906255.820   115118219.98309  21906252.840    89702524.41347
  22838493.880   120017117.75109  22838490.060    93519827.15747
  23179556.960   121809393.96008  23179553.780    94916397.91646
  21528933.600   113135369.85209  21528929.080    88157431.15448
  21213907.160   111479886.11509  21213906.620    86867459.54648
 15 02 17 02 01 30.0000000  0  7G04G16G18G19G21G22G27
  24300810.280   127701633.37408  24300811.740    99507774.11145
  20419528.600   107305364.07909  20419525.260    83614556.81048
  21907950.060   115127123.05309  21907947.040    89709461.87447
  22825914.800   119951014.61009  22825911.000    93468318.23947
  23193268.100   121881446.84408  23193265.060    94972542.99046
  21517984.440   113077831.64609  21517979.900    88112596.20948
  21206142.820   111439084.11209  21206142.220    86835665.78448
 15 02 17 02 02  0.0000000  0  7G04G16G18G19G21G22G27
  24282267.300   127604189.96808  24282268.680    99431844.32045
  20418403.960   107299454.19209  20418400.620    83609951.69449
  21909738.520   115136521.15109  21909735.440    89716785.07147
  22813353.540   119885005.05809  22813349.700    93416882.25347
  23206992.060   121953567.20108  23206989.200    95028740.63947
  21507113.760   113020705.77409  21507109.180    88068082.56948
  21198407.080   111398432.71109  21198406.480    86803989.36749
 15 02 17 02 02 30.0000000  0  7G04G16G18G19G21G22G27
  24263756.160   127506913.71508  24263757.420    99356044.71144
  20417380.500   107294075.97309  20417377.160    83605760.87248
  21911620.940   115146413.04009  21911617.780    89724493.04947
  22800809.960   119819088.42908  22800806.160    93365518.68547
  23220728.300   122025752.08908  23220725.600    95084988.58246
  21496321.980   112963994.15109  21496317.260    88023891.71648
  21190699.960   111357931.67709  21190699.420    86772430.13249
 15 02 17 02 03  0.0000000  0  7G04G16G18G19G21G22G27
  24245277.100   127409806.04308  24245278.300    99280376.48644
  20416458.440   107289230.31809  20416455.080    83601985.03049
  21913597.280   115156798.48809  21913594.100    89732585.61847
  22788284.120   119753264.94509  22788280.380    93314227.68547
  23234476.880   122098001.44908  23234474.200    95141286.75746
  21485609.320   112907698.42009  21485604.520    87980024.93148
  21183021.580   111317581.70909  21183021.120    86740988.59949
 15 02 17 02 03 30.0000000  0  7G04G16G18G19G21G22G27
  24226830.820   127312870.65008  24226831.980    99204842.57944
  20415638.380   107284920.71609  20415635.000    83598626.89349
  21915668.020   115167680.40509  21915664.880    89741065.04547
  22775776.600   119687537.34709  22775772.800    93263011.39747
  23248238.000   122170316.30708  23248235.280    95197635.97347
  21474976.640   112851823.21709  21474971.840    87936485.84548
  21175372.600   111277386.09509  21175372.140    86709667.34249
 15 02 17 02 04  0.0000000  0  7G04G16G18G19G21G22G27
  24208416.820   127216104.90008  24208418.020    99129440.88644
  20414919.880   107281144.80309  20414916.460    83595684.61649
  21917832.520   115179055.02709  21917829.400    89749928.40247
  22763286.700   119621902.80608  22763282.880    93211867.62747
  23262010.640   122242691.52708  23262007.860    95254032.22247
  21464423.680   112796367.30409  21464418.980    87893273.46948
  21167752.480   111237342.19209  21167752.020    86678464.30049
 15 02 17 02 04 30.0000000  0  7G04G16G18G19G21G22G27
  24190035.080   127119508.79008  24190036.280    99054171.36945
  20414302.780   107277901.73409  20414299.340    83593157.54749
  21920090.420   115190920.66309  21920087.340    89759174.36947
  22750814.200   119556359.96708  22750810.400    93160795.31247
  23275794.320   122315124.72708  23275791.460    95310473.65346
  21453950.640   112741331.80309  21453946.000    87850388.69448
  21160161.100   111197449.34909  21160160.680    86647378.97449
 15 02 17 02 05  0.0000000  0  7G04G16G18G19G21G22G27
  24171687.000   127023089.58108  24171688.160    98979039.78344
  20413788.420   107275198.50909  20413784.920    83591051.13149
  21922442.840   115203283.22309  21922439.820    89768807.54347
  22738360.440   119490915.52908  22738356.680    93109799.68147
  23289589.940   122387620.63708  23289586.940    95366963.94247
  21443559.060   112686724.40209  21443554.500    87807837.50148
  21152599.740   111157714.38409  21152599.340    86616416.67449
 15 02 17 02 05 30.0000000  0  7G04G16G18G19G21G22G27
  24153371.660   126926842.65208  24153372.820    98904042.32045
  20413376.000   107273030.96709  20413372.500    83589362.13349
  21924888.860   115216137.56809  21924885.900    89778823.92847
  22725924.520   119425564.47008  22725920.700    93058876.80547
  23303396.200   122460172.66008  23303393.040    95423497.96447
  21433248.340   112632541.87809  21433243.840    87765617.38148
  21145067.580   111118132.82409  21145067.260    86585573.90849
 15 02 17 02 06  0.0000000  0  7G04G16G18G19G21G22G27
  24135089.560   126830770.39308  24135090.720    98829181.07745
  20413065.660   107271400.07809  20413062.220    83588091.29549
  21927428.640   115229484.21309  21927425.640    89789223.91748
  22713506.640   119360308.10908  22713502.740    93008027.72147
  23317213.040   122532780.32608  23317209.860    95480075.34447
  21423019.080   112578787.13709  21423014.600    87723730.60348
  21137564.940   111078706.18209  21137564.620    86554851.84949
 15 02 17 02 06 30.0000000  0  7G04G16G18G19G21G22G27
  24116840.960   126734874.27508  24116842.120    98754457.18046
  20412857.760   107270307.57409  20412854.360    83587239.99049
  21930062.000   115243322.68909  21930058.940    89800007.16447
  22701106.880   119295146.73108  22701102.860    92957252.65447
  23331040.260   122605442.39508  23331037.020    95536695.12247
  21412871.620   112525461.98009  21412867.120    87682178.55748
  21130091.940   111039435.47009  21130091.680    86524251.30549
 15 02 17 02 07  0.0000000  0  7G04G16G18G19G21G22G27
  24098626.340   126639156.85708  24098627.380    98679872.53745
  20412752.860   107269756.14809  20412749.400    83586810.30549
  21932789.360   115257655.14409  21932786.300    89811175.33147
  22688725.740   119230083.05209  22688721.680    92906553.72247
  23344878.080   122678160.19408  23344874.760    95593358.32746
  21402806.880   112472571.44309  21402802.380    87640965.18148
  21122649.200   111000323.63609  21122648.900    86493774.56349
 15 02 17 02 07 30.0000000  0  7G04G16G18G19G21G22G27
  24080445.480   126543617.01308  24080446.540    98605426.01946
  20412750.640   107269744.32409  20412747.140    83586801.07949
  21935610.240   115272479.06109  21935607.200    89822726.44547
  22676362.840   119165115.23209  22676358.780    92855929.46147
  23358725.880   122750930.57508  23358722.520    95650062.50146
  21392824.700   112420114.93309  21392820.220    87600089.99848
  21115236.420   110961369.26709  21115236.080    86463420.51149
 15 02 17 02 08  0.0000000  0  7G04G16G18G19G21G22G27
  24062298.780   126448256.51108  24062299.840    98531119.27746
  20412851.180   107270272.85909  20412847.720    83587212.92949
  21938524.660   115287794.46709  21938521.640    89834660.54547
  22664018.260   119100243.85308  22664014.200    92805380.37847
  23372583.440   122823752.20008  23372580.000    95706806.61446
  21382925.620   112368094.95309  21382921.060    87559554.97248
  21107853.820   110922573.52909  21107853.500    86433190.08249
 15 02 17 02 08 30.0000000  0  7G04G16G18G19G21G22G27
  24044186.600   126353077.23808  24044187.600    98456953.73045
  20413054.880   107271343.67009  20413051.520    83588047.32149
  21941532.680   115303601.91309  21941529.680    89846978.03947
  22651692.280   119035470.49908  22651688.280    92754907.66347
  23386450.640   122896624.66708  23386447.160    95763590.33146
  21373110.120   112316514.30209  21373105.580    87519362.27748
  21100501.820   110883938.27909  21100501.400    86403084.69949
 15 02 17 02 09  0.0000000  0  7G04G16G18G19G21G22G27
  24026108.960   126258079.50508  24026110.020    98382929.67645
  20413361.820   107272956.69509  20413358.500    83589304.22049
  21944634.080   115319900.12209  21944631.120    89859677.96348
  22639384.760   118970794.38109  22639380.760    92704510.72347
  23400327.120   122969546.03608  23400323.580    95820412.15646
  21363378.400   112265373.87609  21363373.880    87479512.62548
  21093180.320   110845463.21109  21093179.840    86373104.13749
 15 02 17 02 09 30.0000000  0  7G04G16G18G19G21G22G27
  24008066.000   126163263.91708  24008066.940    98309047.55345
  20413772.060   107275112.35809  20413768.700    83590983.96349
  21947828.840   115336688.82009  21947825.920    89872760.07948
  22627095.800   118906215.93909  22627091.880    92654189.90347
  23414212.640   123042515.12208  23414209.140    95877271.17046
  21353730.840   112214675.43809  21353726.300    87440007.36948
  21085889.420   110807149.13609  21085888.920    86343249.02849
 15 02 17 02 10  0.0000000  0  7G04G16G18G19G21G22G27
  23990058.140   126068632.59908  23990059.060    98235308.98945
  20414285.700   107277811.44209  20414282.340    83593087.14149
  21951117.040   115353968.47509  21951114.180    89886224.75648
  22614825.620   118841736.13008  22614821.740    92603945.93847
  23428107.180   123115531.46508  23428103.740    95934167.00146
  21344167.840   112164421.47909  21344163.300    87400848.46748
  21078629.400   110768997.50809  21078628.900    86313520.49949
 15 02 17 02 10 30.0000000  0  7G04G16G18G19G21G22G27
  23972085.120   125974184.37008  23972085.980    98161713.06445
  20414902.660   107281053.40209  20414899.260    83595613.34249
  21954498.180   115371736.41009  21954495.380    89900069.91248
  22602574.000   118777353.54109  22602570.120    92553777.72147
  23442010.000   123188591.28808  23442006.660    95991096.71746
  21334689.480   112114612.43709  21334684.960    87362036.25548
  21071400.080   110731007.30409  21071399.600    86283917.75549
 15 02 17 02 11  0.0000000  0  7G04G16G18G19G21G22G27
  23954147.440   125879921.72708  23954148.320    98088261.77344
  20415623.220   107284839.79909  20415619.800    83598563.77549
  21957972.400   115389993.68809  21957969.640    89914296.36847
  22590341.240   118713069.76109  22590337.260    92503686.50547
  23455921.280   123261695.40808  23455917.940    96048060.94146
  21325296.360   112065251.56309  21325291.860    87323573.25948
  21064201.920   110693180.64909  21064201.400    86254442.44849
 15 02 17 02 11 30.0000000  0  7G04G16G18G19G21G22G27
  23936245.360   125785846.04308  23936246.180    98014956.22744
  20416447.560   107289171.59109  20416444.100    83601939.19749
  21961539.620   115408739.76509  21961536.840    89928903.72047
  22578127.400   118648885.56709  22578123.420    92453672.88447
  23469840.760   123334842.86308  23469837.520    96105058.94446
  21315988.840   112016340.62809  21315984.420    87285460.87048
  21057035.060   110655518.55909  21057034.580    86225095.37549
 15 02 17 02 12  0.0000000  0  7G04G16G18G19G21G22G27
  23918378.960   125691957.69008  23918379.560    97941796.63144
  20417375.760   107294049.21709  20417372.280    83605739.93749
  21965199.840   115427974.37809  21965197.000    89943891.73448
  22565932.500   118584800.93809  22565928.480    92403736.85148
  23483768.180   123408032.19408  23483765.020    96162089.56546
  21306767.260   111967881.43109  21306762.860    87247700.47848
  21049899.640   110618021.65509  21049899.180    86195877.01649
 15 02 17 02 12 30.0000000  0  7G04G16G18G19G21G22G27
  23900548.420   125598257.75408  23900548.780    97868783.75945
  20418407.780   107299472.44609  20418404.300    83609965.83349
  21968952.880   115447696.64709  21968949.980    89959259.74848
  22553756.620   118520816.30609  22553752.580    92353878.73147
  23497703.360   123481262.05108  23497700.220    96219151.77746
  21297631.900   111919875.09309  21297627.500    87210292.97848
  21042795.780   110580690.59609  21042795.320    86166787.88549
 15 02 17 02 13  0.0000000  0  7G04G16G18G19G21G22G27
  23882753.880   125504746.98308  23882754.140    97795918.26345
  20419543.800   107305442.12909  20419540.300    83614617.53649
  21972798.700   115467906.18909  21972795.760    89975007.44748
  22541599.780   118456932.00709  22541595.800    92304098.80948
  23511646.020   123554531.28208  23511642.940    96276244.66647
  21288583.280   111872324.34709  21288578.840    87173240.47448
  21035723.600   110543526.24409  21035723.160    86137828.66049
 15 02 17 02 13 30.0000000  0  7G04G16G18G19G21G22G27
  23864995.800   125411428.00308  23864996.020    97723202.29945
  20420784.060   107311959.71809  20420780.540    83619696.17549
  21976737.220   115488603.02509  21976734.260    89991134.86247
  22529462.360   118393149.70209  22529458.380    92254398.34448
  23525596.120   123627839.86208  23525593.140    96333368.21047
  21279621.900   111825231.69609  21279617.380    87136544.92448
  21028683.520   110506530.62109  21028683.100    86109000.91049
 15 02 17 02 14  0.0000000  0  7G04G16G18G19G21G22G27
  23847273.660   125318298.18308  23847274.080    97650633.73545
  20422128.080   107319022.64609  20422124.580    83625199.75249
  21980767.780   115509783.98409  21980764.820    90007639.52047
  22517343.820   118329466.48409  22517339.800    92204775.09448
  23539552.880   123701183.27608  23539549.940    96390518.91046
  21270747.340   111778595.37709  21270742.740    87100204.96248
  21021675.060   110469701.23009  21021674.680    86080302.69049
 15 02 17 02 14 30.0000000  0  7G04G16G18G19G21G22G27
  23829588.420   125225362.02608  23829588.880    97578216.05845
  20423576.600   107326634.89409  20423573.180    83631131.36749
  21984890.960   115531451.92009  21984888.040    90024523.62947
  22505244.940   118265886.47209  22505240.900    92155232.27148
  23553516.780   123774563.79508  23553513.840    96447698.51646
  21261960.660   111732420.97009  21261956.020    87064224.92548
  21014699.120   110433042.68109  21014698.760    86051737.59749
 15 02 17 02 15  0.0000000  0  7G04G16G18G19G21G22G27
  23811939.700   125132617.80508  23811940.300    97505947.93845
  20425129.200   107334793.99609  20425125.820    83637489.10949
  21989106.260   115553603.46009  21989103.300    90041784.57447
  22493165.220   118202407.06209  22493161.080    92105767.82648
  23567487.040   123847977.81208  23567484.060    96504904.22447
  21253261.720   111686707.34809  21253257.000    87028603.93748
  21007755.320   110396552.85509  21007755.000    86023303.97649
 15 02 17 02 15 30.0000000  0  7G04G16G18G19G21G22G27
  23794328.400   125040070.40108  23794329.040    97433833.14546
  20426786.720   107343504.39309  20426783.380    83644276.42749
  21993414.220   115576242.01409  21993411.260    90059425.01447
  22481105.620   118139033.11609  22481101.360    92056385.56548
  23581464.240   123921428.41508  23581461.240    96562138.43547
  21244651.500   111641460.23909  21244646.780    86993346.47448
  21000844.600   110360236.83609  21000844.300    85995005.79249
 15 02 17 02 16  0.0000000  0  7G04G16G18G19G21G22G27
  23776754.180   124947717.69008  23776754.920    97361870.08646
  20428548.580   107352762.87209  20428545.240    83651490.82249
  21997814.080   115599363.63109  21997811.160    90077441.86947
  22469065.460   118075761.60409  22469061.120    92007083.11747
  23595447.540   123994910.92108  23595444.480    96619397.51146
  21236129.800   111596678.39309  21236125.020    86958451.55448
  20993966.520   110324092.23009  20993966.200    85966841.17249
 15 02 17 02 16 30.0000000  0  7G04G16G18G19G21G22G27
  23759216.980   124855559.57908  23759217.740    97290058.58945
  20430414.720   107362569.44909  20430411.380    83659132.30949
  22002305.540   115622966.80709  22002302.720    90095833.96047
  22457044.680   118012592.18109  22457040.320    91957860.22748
  23609436.560   124068423.41508  23609433.420    96676679.94746
  21227696.760   111552362.36609  21227691.880    86923919.60348
  20987121.020   110288118.86809  20987120.660    85938809.98149
 15 02 17 02 17  0.0000000  0  7G04G16G18G19G21G22G27
  23741717.480   124763599.59508  23741718.260    97218401.45046
  20432385.620   107372926.50109  20432382.240    83667202.72949
  22006889.060   115647053.67209  22006886.260    90114602.95447
  22445043.880   117949527.73009  22445039.480    91908719.12348
  23623431.560   124141967.50308  23623428.400    96733987.00346
  21219353.060   111508516.01109  21219348.220    86889753.63048
  20980308.820   110252320.51109  20980308.440    85910915.16549
 15 02 17 02 17 30.0000000  0  7G04G16G18G19G21G22G27
  23724255.720   124671837.83908  23724256.540    97146898.77145
  20434461.200   107383833.76909  20434457.780    83675701.89648
  22011564.300   115671622.20809  22011561.460    90133747.28247
  22433062.960   117886567.87509  22433058.660    91859659.53447
  23637432.160   124215541.25708  23637428.980    96791317.18746
  21211098.980   111465140.71209  21211094.220    86855954.72948
  20973529.900   110216696.87209  20973529.480    85883156.50048
 15 02 17 02 18  0.0000000  0  7G04G16G18G19G21G22G27
  23706831.580   124580273.55008  23706832.400    97075549.98445
  20436641.200   107395289.91909  20436637.820    83684628.75949
  22016330.780   115696670.32909  22016327.980    90153265.29947
  22421101.700   117823711.53609  22421097.520    91810680.60648
  23651437.860   124289141.75508  23651434.680    96848668.18446
  21202934.580   111422236.64209  21202929.800    86822523.00548
  20966784.140   110181247.38609  20966783.680    85855533.52449
 15 02 17 02 18 30.0000000  0  7G04G16G18G19G21G22G27
  23689445.800   124488910.76708  23689446.700    97004358.20646
  20438926.280   107407298.46609  20438923.000    83693986.07249
  22021188.980   115722200.23009  22021186.200    90173158.74247
  22409160.900   117760962.29609  22409156.700    91761785.12748
  23665448.980   124362770.57708  23665445.780    96906041.28846
  21194860.700   111379808.02209  21194855.880    86789461.76948
  20960072.240   110145975.96309  20960071.760    85828049.31549
 15 02 17 02 19  0.0000000  0  7G04G16G18G19G21G22G27
  23672097.400   124397744.55108  23672098.320    96933319.61745
  20441315.320   107419853.27709  20441312.140    83703769.03549
  22026137.660   115748205.51109  22026134.840    90193422.59947
  22397239.420   117698314.61409  22397235.160    91712968.78048
  23679464.240   124436421.22308  23679461.060    96963431.38346
  21186876.440   111337850.64409  21186871.660    86756767.72448
  20953393.260   110110877.73409  20953392.780    85800700.05349
 15 02 17 02 19 30.0000000  0  7G04G16G18G19G21G22G27
  23654787.780   124306781.57208  23654788.580    96862439.38945
  20443809.480   107432960.47609  20443806.380    83713982.43349
  22031177.760   115774691.37809  22031174.860    90214060.95847
  22385338.480   117635774.96709  22385334.240    91664236.62348
  23693484.580   124510098.63608  23693481.400    97020842.33446
  21178983.180   111296371.75809  21178978.420    86724446.54548
  20946748.500   110075959.27109  20946748.000    85773490.87049
 15 02 17 02 20  0.0000000  0  7G04G16G18G19G21G22G27
  23637516.800   124216021.52008  23637517.520    96791717.26745
  20446408.580   107446619.17709  20446405.600    83724625.57149
  22036308.880   115801655.66709  22036305.960    90235072.10447
  22373457.860   117573342.55509  22373453.760    91615588.02948
  23707509.600   124583800.49608  23707506.400    97078272.33846
  21171181.120   111255372.14509  21171176.440    86692498.81948
  20940137.920   110041220.48309  20940137.400    85746421.70349
 15 02 17 02 20 30.0000000  0  7G04G16G18G19G21G22G27
  23620284.560   124125464.97608  23620285.040    96721153.76745
  20449112.580   107460829.04009  20449109.660    83735698.17949
  22041530.740   115829096.93109  22041527.840    90256454.90847
  22361597.680   117511017.41109  22361593.720    91567023.01648
  23721538.940   124657525.08808  23721535.740    97135720.05046
  21163470.420   111214852.48409  21163465.780    86660925.08148
  20933561.580   110006661.75909  20933561.060    85719492.83349
 15 02 17 02 21  0.0000000  0  7G04G16G18G19G21G22G27
  23603091.020   124035111.85808  23603091.180    96650748.75745
  20451921.340   107475589.14209  20451918.460    83747199.55349
  22046843.160   115857013.90009  22046840.220    90278208.39847
  22349757.940   117448799.33409  22349754.040    91518541.42648
  23735572.280   124731270.57208  23735568.980    97193184.04346
  21155851.220   111174813.68309  21155846.600    86629726.03548
  20927019.540   109972283.24709  20927019.000    85692704.39249
 15 02 17 02 21 30.0000000  0  7G04G16G18G19G21G22G27
  23585936.360   123944963.46208  23585936.480    96580503.40245
  20454835.020   107490900.36609  20454832.120    83759130.37949
  22052245.980   115885405.70109  22052242.940    90300331.88947
  22337938.780   117386689.11909  22337934.800    91470143.89748
  23749609.440   124805036.06008  23749606.160    97250663.62546
  21148323.820   111135257.42609  21148319.240    86598903.00448
  20920512.020   109938085.98809  20920511.400    85666057.19849
 15 02 17 02 22  0.0000000  0  7G04G16G18G19G21G22G27
  23568821.360   123855023.86908  23568821.400    96510420.68045
  20457854.180   107506766.02509  20457851.240    83771493.22149
  22057739.660   115914275.04209  22057736.560    90322827.49047
  22326140.880   117324690.72809  22326136.800    91421833.48948
  23763650.960   124878824.34608  23763647.720    97308160.97846
  21140889.180   111096188.73109  21140884.640    86568459.88248
  20914039.900   109904074.69109  20914039.220    85639554.89549
 15 02 17 02 22 30.0000000  0  7G04G16G18G19G21G22G27
  23551745.260   123765288.59908  23551745.180    96440497.24345
  20460977.800   107523180.66909  20460974.800    83784283.85249
  22063322.920   115943615.16909  22063319.760    90345689.94347
  22314363.280   117262799.01109  22314359.160    91373606.21448
  23777695.520   124952628.92508  23777692.260    97365671.02046
  21133546.540   111057603.28909  21133542.080    86538393.32048
  20907602.260   109870244.51009  20907601.540    85613193.71549
 15 02 17 02 23  0.0000000  0  7G04G16G18G19G21G22G27
  23534709.080   123675763.43908  23534709.020    96370737.44445
  20464206.880   107540149.73009  20464203.880    83797506.49149
  22068996.680   115973430.78209  22068993.480    90368922.90947
  22302607.120   117201019.95309  22302603.020    91325466.72148
  23791743.880   125026453.76808  23791740.720    97423196.85746
  21126297.180   111019507.68209  21126292.760    86508708.45848
  20901200.340   109836601.84609  20901199.600    85586978.65849
 15 02 17 02 23 30.0000000  0  7G04G16G18G19G21G22G27
  23517711.860   123586443.21308  23517711.900    96301137.36545
  20467540.260   107557666.67409  20467537.220    83811156.05148
  22074759.600   116003714.96309  22074756.360    90392520.98247
  22290871.300   117139347.80809  22290867.220    91277410.53548
  23805794.720   125100291.75708  23805791.700    97480732.92546
  21119140.320   110981897.55809  21119135.800    86479401.88448
  20894833.000   109803141.28809  20894832.300    85560905.50449
 15 02 17 02 24  0.0000000  0  7G04G16G18G19G21G22G27
  23500754.820   123497334.23308  23500755.020    96231701.90345
  20470979.000   107575737.29609  20470975.920    83825237.04749
  22080612.580   116034472.47809  22080609.280    90416487.88947
  22279156.920   117077788.39109  22279152.840    91229442.19148
  23819848.960   125174147.36008  23819846.060    97538282.72046
  21112077.180   110944779.98709  21112072.500    86450479.12448
  20888501.540   109769869.39409  20888500.900    85534979.36749
 15 02 17 02 24 30.0000000  0  7G04G16G18G19G21G22G27
  23483837.640   123408434.84808  23483837.940    96162429.74145
  20474522.540   107594358.65309  20474519.420    83839747.19349
  22086554.880   116065699.32009  22086551.500    90440820.50247
  22267463.680   117016340.06309  22267459.620    91181560.40348
  23833905.880   125248017.13908  23833902.980    97595843.55746
  21105107.460   110908153.78209  21105102.760    86421939.25148
  20882205.660   109736784.64909  20882205.040    85509199.05349
 15 02 17 02 25  0.0000000  0  7G04G16G18G19G21G22G27
  23466961.140   123319749.12208  23466961.560    96093324.03046
  20478171.620   107613534.51109  20478168.500    83854689.41649
  22092586.940   116097397.96709  22092583.520    90465520.75647
  22255792.260   116955006.73409  22255788.260    91133768.23648
  23847966.000   125321903.57308  23847963.100    97653417.37246
  21098232.020   110872023.17509  21098227.380    86393785.54748
  20875946.220   109703891.39109  20875945.620    85483567.95149
 15 02 17 02 25 30.0000000  0  7G04G16G18G19G21G22G27
  23450124.380   123231271.90808  23450124.880    96024380.77146
  20481925.020   107633258.78309  20481921.900    83870058.97849
  22098707.460   116129561.67709  22098704.140    90490583.40447
  22244141.720   116893782.90909  22244137.680    91086061.38848
  23862027.960   125395799.53008  23862025.080    97710998.62446
  21091450.000   110836383.65009  21091445.380    86366014.51648
  20869722.280   109671184.46209  20869721.640    85458082.04349
 15 02 17 02 26  0.0000000  0  7G04G16G18G19G21G22G27
  23433328.160   123143007.45508  23433328.700    95955603.31646
  20485783.360   107653534.52809  20485780.260    83885858.26249
  22104916.900   116162192.67509  22104913.680    90516010.18047
  22232512.760   116832672.33809  22232508.600    91038442.79248
  23876092.140   125469707.19508  23876089.340    97768588.99446
  21084762.400   110801240.14309  21084757.740    86338629.98548
  20863534.640   109638668.36609  20863534.040    85432744.83549
 15 02 17 02 26 30.0000000  0  7G04G16G18G19G21G22G27
  23416572.420   123054955.53908  23416573.080    95886991.46446
  20489746.300   107674360.14109  20489743.260    83902086.00749
  22111214.840   116195288.66509  22111211.620    90541799.27647
  22220905.340   116771674.81609  22220901.040    90990912.28648
  23890158.220   125543624.85708  23890155.500    97826187.14646
  21078169.200   110766592.36209  21078164.500    86311631.73548
  20857383.320   109606342.89809  20857382.700    85407556.16749
 15 02 17 02 27  0.0000000  0  7G04G16G18G19G21G22G27
  23399857.600   122967118.56908  23399858.240    95818547.07246
  20493814.400   107695738.31409  20493811.400    83918744.31549
  22117601.460   116228850.68009  22117598.220    90567951.50147
  22209319.840   116710792.50009  22209315.400    90943471.54148
  23904226.420   125617553.34008  23904223.640    97883793.73246
  21071671.060   110732444.04609  21071666.300    86285022.66848
  20851268.840   109574210.96009  20851268.200    85382518.29749
 15 02 17 02 27 30.0000000  0  7G04G16G18G19G21G22G27
  23383183.600   122879496.10808  23383184.300    95750269.90146
  20497987.220   107717666.73909  20497984.260    83935831.39149
  22124076.340   116262876.23009  22124073.060    90594464.93147
  22197756.040   116650024.38909  22197751.560    90896119.80348
  23918296.220   125691490.04708  23918293.400    97941406.73446
  21065267.860   110698794.73809  21065263.060    86258802.45448
  20845191.040   109542271.99409  20845190.440    85357630.80849
 15 02 17 02 28  0.0000000  0  7G04G16G18G19G21G22G27
  23366550.600   122792089.31108  23366551.240    95682160.82546
  20502264.900   107740145.88909  20502261.860    83953347.60449
  22130639.320   116297364.73909  22130636.040    90621339.09847
  22186214.320   116589372.04109  22186209.840    90848858.25448
  23932367.560   125765434.87308  23932364.700    97999026.05846
  21058959.900   110665646.01909  21058955.040    86232972.29748
  20839150.200   109510527.57109  20839149.720    85332894.89749
 15 02 17 02 28 30.0000000  0  7G04G16G18G19G21G22G27
  23349959.040   122704900.59708  23349959.700    95614221.76446
  20506647.600   107763176.97209  20506644.540    83971293.89449
  22137290.500   116332316.77109  22137287.220    90648574.46447
  22174694.920   116528837.39909  22174690.480    90801688.43948
  23946440.420   125839388.02008  23946437.560    98056651.87146
  21052747.740   110633000.84009  21052742.860    86207534.52448
  20833146.900   109478980.27109  20833146.440    85308312.59649
 15 02 17 02 29  0.0000000  0  7G04G16G18G19G21G22G27
  23333408.380   122617926.68608  23333408.900    95546450.15046
  20511134.500   107786755.70409  20511131.400    83989666.92049
  22144028.840   116367726.96609  22144025.580    90676166.83447
  22163197.200   116468416.72709  22163192.780    90754607.42148
  23960513.940   125913344.75608  23960511.080    98114280.48646
  21046630.820   110600856.16909  21046625.880    86182486.74548
  20827180.520   109447626.81909  20827180.060    85283881.33949
 15 02 17 02 29 30.0000000  0  7G04G16G18G19G21G22G27
  23316899.300   122531171.19808  23316899.700    95478848.68146
  20515726.140   107810884.93509  20515723.060    84008468.91849
  22150854.660   116403597.19709  22150851.460    90704117.67547
  22151721.880   116408113.92309  22151717.460    90707618.25648
  23974588.560   125987307.14408  23974585.660    98171913.50246
  21040609.980   110569216.48309  21040605.040    86157832.47148
  20821251.860   109416471.56609  20821251.400    85259604.53949
 15 02 17 02 30  0.0000000  0  7G04G16G18G19G21G22G27
  23300432.160   122444636.04308  23300432.460    95411418.74846
  20520422.800   107835566.15509  20520419.720    84027701.03849
  22157768.140   116439928.12409  22157765.020    90732427.49947
  22140269.360   116347930.97109  22140264.940    90660722.48048
  23988664.360   126061275.72808  23988661.420    98229551.34146
  21034685.660   110538084.35509  21034680.760    86133573.69748
  20815361.380   109385517.00609  20815360.980    85235484.11549
 15 02 17 02 30 30.0000000  0  7G04G16G18G19G21G22G27
  23284006.700   122358319.91508  23284006.920    95344159.46446
  20525223.860   107860795.92509  20525220.760    84047360.59249
  22164768.600   116476715.93109  22164765.520    90761093.33547
  22128839.380   116287866.40709  22128834.940    90613918.94848
  24002740.760   126135247.49708  24002737.780    98287191.66546
  21028857.680   110507458.32109  21028852.780    86109709.27149
  20809508.880   109354761.69309  20809508.460    85211518.94649
 15 02 17 02 31  0.0000000  0  7G04G16G18G19G21G22G27
  23267622.700   122272221.37408  23267622.840    95277069.69646
  20530129.040   107886572.85909  20530125.940    84067446.49949
  22171855.380   116513957.30309  22171852.300    90790112.59447
  22117431.640   116227918.63609  22117427.180    90567206.42648
  24016817.160   126209219.42808  24016814.080    98344832.11546
  21023125.840   110477337.49809  21023121.000    86086238.52048
  20803694.060   109324204.52109  20803693.620    85187708.17549
 15 02 17 02 31 30.0000000  0  7G04G16G18G19G21G22G27
  23251281.060   122186345.54208  23251281.160    95210153.50246
  20535139.040   107912900.31909  20535135.880    84087961.40249
  22179029.100   116551655.65109  22179026.040    90819487.93847
  22106047.080   116168092.42009  22106042.600    90520588.62548
  24030894.180   126283194.66808  24030891.140    98402475.14246
  21017491.200   110447727.52309  21017486.440    86063165.83748
  20797917.980   109293850.85309  20797917.420    85164055.98049
 15 02 17 02 32  0.0000000  0  7G04G16G18G19G21G22G27
  23234981.840   122100692.69708  23234982.000    95143411.09746
  20540253.700   107939777.51809  20540250.460    84108904.67549
  22186289.480   116589809.50709  22186286.480    90849218.22447
  22094685.680   116108387.81009  22094681.120    90474065.58148
  24044971.560   126357172.14608  24044968.580    98460119.91646
  21011953.860   110418628.84409  21011949.120    86040491.56448
  20792180.740   109263701.31109  20792180.080    85140562.84149
 15 02 17 02 32 30.0000000  0  7G04G16G18G19G21G22G27
  23218724.480   122015259.91408  23218724.580    95076840.15345
  20545472.180   107967200.37209  20545468.840    84130273.12049
  22193635.560   116628413.48909  22193632.600    90879299.24347
  22083346.920   116048802.17609  22083342.300    90427635.23448
  24059048.360   126431146.45708  24059045.360    98517762.20846
  21006513.280   110390038.69409  21006508.520    86018213.54048
  20786481.740   109233753.19209  20786481.080    85117226.65149
 15 02 17 02 33  0.0000000  0  7G04G16G18G19G21G22G27
  23202509.740   121930051.11908  23202509.780    95010443.78445
  20550794.920   107995171.26009  20550791.500    84152068.60848
  22201067.700   116667470.00309  22201064.760    90909732.89847
  22072031.500   115989339.36609  22072026.960    90381300.61648
  24073125.280   126505121.10808  24073122.280    98575404.78146
  21001170.280   110361961.41609  21001165.520    85996335.15348
  20780821.900   109204010.85009  20780821.320    85094050.80849
 15 02 17 02 33 30.0000000  0  7G04G16G18G19G21G22G27
  23186337.580   121845066.15208  23186337.620    94944222.07846
  20556221.740   108023689.01309  20556218.220    84174290.23249
  22208585.440   116706976.32209  22208582.460    90940517.06147
  22060739.380   115929998.76009  22060734.840    90335061.22348
  24087201.760   126579093.57008  24087198.840    98633045.64845
  20995924.920   110334396.96509  20995920.080    85974856.38348
  20775201.220   109174474.15909  20775200.660    85071035.22749
 15 02 17 02 34  0.0000000  0  7G04G16G18G19G21G22G27
  23170207.920   121760305.01608  23170207.940    94878174.77646
  20561752.520   108052753.33509  20561748.960    84196937.74549
  22216188.520   116746931.01409  22216185.540    90971650.58147
  22049470.620   115870780.81309  22049466.120    90288917.39548
  24101277.600   126653062.71108  24101274.680    98690683.92045
  20990777.240   110307345.85009  20990772.440    85953777.60748
  20769619.880   109145143.82709  20769619.240    85048180.42749
 15 02 17 02 34 30.0000000  0  7G04G16G18G19G21G22G27
  23154121.460   121675771.15708  23154121.480    94812304.38246
  20567387.760   108082366.36809  20567384.120    84220012.82749
  22223877.220   116787335.53109  22223874.320    91003134.62747
  22038225.900   115811689.04309  22038221.380    90242871.88548
  24115353.280   126727030.92508  24115350.340    98748321.47245
  20985728.060   110280812.34309  20985723.300    85933102.17348
  20764078.640   109116024.11809  20764077.940    85025489.75149
 15 02 17 02 35  0.0000000  0  7G04G16G18G19G21G22G27
  23138077.500   121591460.45808  23138077.420    94746607.86946
  20573126.360   108112522.60209  20573122.620    84243511.18248
  22231650.440   116828184.32709  22231647.620    91034964.86047
  22027004.380   115752719.22909  22026999.720    90196921.40348
  24129427.640   126800992.43008  24129424.800    98805953.79345
  20980776.600   110254792.30109  20980771.800    85912826.83048
  20758576.720   109087111.02309  20758575.980    85002960.08349
 15 02 17 02 35 30.0000000  0  7G04G16G18G19G21G22G27
  23122076.840   121507377.68408  23122076.840    94681089.26446
  20578968.820   108143225.13909  20578965.160    84267435.23549
  22239508.540   116869478.91409  22239505.720    91067142.45747
  22015806.780   115693875.47509  22015802.080    90151069.16448
  24143501.200   126874949.40608  24143498.360    98863582.59345
  20975923.600   110229289.96009  20975918.860    85892954.89948
  20753114.940   109058408.93909  20753114.180    84980594.83749
 15 02 17 02 36  0.0000000  0  7G04G16G18G19G21G22G27
  23106119.140   121423520.65508  23106119.120    94615746.46746
  20584914.620   108174470.80009  20584911.040    84291782.49348
  22247450.860   116911215.92108  22247447.980    91099664.80347
  22004632.960   115635156.67309  22004628.200    90105314.27848
  24157573.320   126948898.93508  24157570.480    98921205.59545
  20971168.960   110204304.38409  20971164.240    85873485.63548
  20747693.100   109029916.99609  20747692.340    84958393.32749
 15 02 17 02 36 30.0000000  0  7G04G16G18G19G21G22G27
  23090204.980   121339892.51708  23090204.840    94550582.03646
  20590964.140   108206261.65209  20590960.660    84316554.57948
  22255477.560   116953396.70908  22255474.700    91132532.94547
  21993483.420   115576565.56609  21993478.620    90059658.89248
  24171644.360   127022842.95408  24171641.640    98978824.28845
  20966513.160   110179838.11409  20966508.400    85854421.03148
  20742311.820   109001638.53609  20742311.120    84936358.17949
 15 02 17 02 37  0.0000000  0  7G04G16G18G19G21G22G27
  23074334.200   121256492.56308  23074334.000    94485595.25646
  20597117.120   108238595.90609  20597113.640    84341750.09448
  22263588.240   116996018.71709  22263585.420    91165744.90047
  21982358.120   115518101.90409  21982353.380    90014102.81248
  24185713.980   127096779.46608  24185711.300    99036437.13945
  20961956.380   110155892.01009  20961951.540    85835761.74048
  20736971.180   108973573.60409  20736970.520    84914489.40549
 15 02 17 02 37 30.0000000  0  7G04G16G18G19G21G22G27
  23058506.680   121173319.82708  23058506.520    94420785.51646
  20603373.060   108271471.20009  20603369.620    84367367.20448
  22271782.320   117039078.69608  22271779.440    91199298.13247
  21971256.840   115459764.37809  21971252.100    89968645.03548
  24199781.660   127170705.55508  24199778.800    99094041.87145
  20957498.260   110132464.47409  20957493.420    85817506.54548
  20731671.040   108945721.34309  20731670.380    84892786.35149
 15 02 17 02 38  0.0000000  0  7G04G16G18G19G21G22G27
  23042723.240   121090378.64808  23042723.080    94356156.30846
  20609732.640   108304890.91109  20609729.200    84393408.52548
  22280060.160   117082578.86508  22280057.240    91233194.37647
  21960180.440   115401557.59309  21960175.620    89923289.11748
  24213848.000   127244624.32908  24213845.100    99151640.90245
  20953139.640   110109559.87309  20953134.740    85799658.82148
  20726412.340   108918086.51709  20726411.620    84871252.73149
 15 02 17 02 38 30.0000000  0  7G04G16G18G19G21G22G27
  23026984.040   121007670.03908  23026983.880    94291708.44146
  20616195.640   108338854.14809  20616192.180    84419873.37448
  22288421.480   117126517.94108  22288418.540    91267432.61247
  21949129.040   115343482.15409  21949124.200    89878035.53848
  24227912.820   127318535.23408  24227909.920    99209233.79845
  20948880.720   110087179.18209  20948875.860    85782219.34248
  20721195.280   108890670.39509  20721194.500    84849889.52549
 15 02 17 02 39  0.0000000  0  7G04G16G18G19G21G22G27
  23011288.360   120925189.90609  23011288.100    94227438.36146
  20622761.180   108373356.29009  20622757.760    84446758.15348
  22296865.320   117170890.67708  22296862.400    91302008.78347
  21938101.920   115285534.92809  21938097.200    89832881.89248
  24241975.160   127392433.43708  24241972.400    99266816.78945
  20944720.960   110065319.33809  20944716.080    85765185.71848
  20716019.280   108863470.12209  20716018.480    84828694.51949
 15 02 17 02 39 30.0000000  0  8G04G11G16G18G19G21G22G27
  22995636.740   120842940.55809  22995636.400    94163348.04446
  24704637.520                                                  
  20629429.400   108408398.11009  20629426.000    84474063.45048
  22305391.680   117215696.95908  22305388.820    91336922.75747
  21927099.720   115227718.47609  21927095.140    89787830.12248
  24256035.280   127466319.63808  24256032.540    99324390.42545
  20940660.700   110043982.41209  20940655.860    85748559.55848
  20710884.800   108836488.27109  20710884.000    84807669.71049
 15 02 17 02 40  0.0000000  0  8G04G11G16G18G19G21G22G27
  22980027.700   120760914.80109  22980027.240    94099431.99446
  24687743.500   129734967.44207  24687742.220   101092175.16944
  20636198.540   108443970.35109  20636195.220    84501782.08648
  22313998.760   117260927.52309  22313995.960    91372167.36047
  21916120.900   115170024.93409  21916116.420    89742874.14848
  24270091.480   127540185.21308  24270088.680    99381947.99745
  20936698.600   110023161.15709  20936693.740    85732335.22648
  20705790.560   108809717.84609  20705789.720    84786809.65949
 15 02 17 02 40 30.0000000  0  8G04G11G16G18G19G21G22G27
  22964464.740   120679131.01008  22964464.200    94035704.42846
  24670867.520   129646283.61907  24670866.020   101023071.04245
  20643072.000   108480090.85609  20643068.700    84529927.92848
  22322689.680   117306598.64708  22322686.960    91407755.24547
  21905169.100   115112473.16009  21905164.700    89698028.62848
  24284147.040   127614047.44308  24284144.220    99439502.97645
  20932838.220   110002874.31609  20932833.240    85716527.31548
  20700740.220   108783177.88509  20700739.300    84766129.17949
 15 02 17 02 41  0.0000000  0  8G04G11G16G18G19G21G22G27
  22948945.940   120597579.44108  22948945.380    93972157.82346
  24654007.580   129557684.72507  24654006.040   100954033.10245
  20650047.460   108516747.49309  20650044.260    84558491.53748
  22331462.100   117352698.44009  22331459.460    91443677.17247
  21894242.460   115055053.50209  21894238.120    89653286.06648
  24298199.740   127687894.74507  24298196.860    99497046.31045
  20929077.660   109983112.08809  20929072.540    85701128.19448
  20695731.920   108756859.08609  20695730.980    84745621.03049
 15 02 17 02 41 30.0000000  0  8G04G11G16G18G19G21G22G27
  22933471.600   120516261.86108  22933471.080    93908793.55946
  24637164.060   129469172.58807  24637162.600   100885062.77045
  20657125.240   108553941.88009  20657122.160    84587474.16148
  22340316.160   117399226.93909  22340313.500    91479933.13947
  21883341.400   114997768.20609  21883337.060    89608648.18548
  24312249.620   127761727.31607  24312246.660    99554578.15945
  20925417.260   109963876.35409  20925412.040    85686139.33148
  20690766.120   108730763.87309  20690765.260    84725287.09949
 15 02 17 02 42  0.0000000  0  8G04G11G16G18G19G21G22G27
  22918041.960   120435179.27308  22918041.360    93845612.40546
  24620337.060   129380747.45207  24620335.760   100816160.22245
  20664305.160   108591673.11809  20664302.260    84616875.12349
  22349251.600   117446182.75709  22349248.840    91516522.09847
  21872466.000   114940617.77709  21872461.640    89564115.41248
  24326296.720   127835545.37507  24326293.900    99612098.69345
  20921857.160   109945167.82809  20921851.920    85671561.27348
  20685843.060   108704893.47809  20685842.320    84705128.36249
 15 02 17 02 42 30.0000000  0  8G04G11G16G18G19G21G22G27
  22902657.440   120354333.42708  22902656.840    93782615.77146
  24603526.980   129292411.34607  24603525.820   100747327.03044
  20671587.380   108629941.56909  20671584.560    84646694.68649
  22358268.340   117493565.87709  22358265.500    91553444.00847
  21861616.780   114883604.83009  21861612.480    89519689.76248
  24340341.120   127909349.30208  24340338.500    99669608.21245
  20918397.760   109926988.65909  20918392.560    85657395.70748
  20680963.320   108679250.58609  20680962.680    84685146.88449
 15 02 17 02 43  0.0000000  0  8G04G11G16G18G19G21G22G27
  22887317.440   120273721.66608  22887316.920    93719801.55146
  24586733.300   129204161.10008  24586732.180   100678560.73645
  20678971.040   108668743.02409  20678968.320    84676929.57248
  22367365.440   117541371.34809  22367362.540    91590695.03247
  21850793.260   114826726.74909  21850788.960    89475369.19448
  24354382.020   127983134.93507  24354379.400    99727103.48845
  20915038.520   109909336.23509  20915033.480    85643640.59448
  20676126.420   108653832.76809  20676125.820    84665340.79049
 15 02 17 02 43 30.0000000  0  8G04G11G16G18G19G21G22G27
  22872022.100   120193344.78208  22872021.680    93657170.28546
  24569956.180   129115997.41408  24569955.060   100609861.85245
  20686456.000   108708076.71009  20686453.280    84707579.19848
  22376542.720   117589597.83309  22376539.660    91628274.12247
  21839995.640   114769984.73409  21839991.300    89431154.66348
  24368419.460   128056902.02207  24368416.820    99784584.31145
  20911779.700   109892211.45909  20911774.740    85630296.63648
  20671332.640   108628641.66509  20671332.100    84645711.36149
 15 02 17 02 44  0.0000000  0  8G04G11G16G18G19G21G22G27
  22856771.680   120113203.64108  22856771.180    93594722.70046
  24553195.760   129027921.22308  24553194.540   100541231.17645
  20694042.240   108747942.71509  20694039.560    84738643.60948
  22385799.920   117638244.29309  22385796.680    91666180.45247
  21829224.080   114713379.76709  21829219.720    89387046.91148
  24382453.420   128130650.77007  24382450.800    99842050.84745
  20908621.400   109875614.96709  20908616.520    85617364.32048
  20666582.260   108603678.70109  20666581.780    84626259.70349
 15 02 17 02 44 30.0000000  0  8G04G11G16G18G19G21G22G27
  22841566.680   120033301.10808  22841566.180    93532461.04746
  24536452.460   128939935.14708  24536451.220   100472670.71045
  20701730.000   108788341.96709  20701727.280    84770123.54148
  22395137.200   117687311.56309  22395133.860    91704414.69247
  21818479.200   114656915.01809  21818474.820    89343048.42848
  24396484.000   128204381.92807  24396481.480    99899503.68745
  20905564.240   109859549.89509  20905559.440    85604846.10348
  20661876.000   108578947.38509  20661875.600    84606988.55449
 15 02 17 02 45  0.0000000  0  8G04G11G16G18G19G21G22G27
  22826406.960   119953636.58608  22826406.500    93470384.85646
  24519726.180   128852038.18108  24519724.860   100404179.67045
  20709518.760   108829271.97709  20709516.000    84802017.05248
  22404554.000   117736796.90509  22404550.660    91742974.70347
  21807760.920   114600590.12609  21807756.540    89299158.92448
  24410510.920   128278093.80607  24410508.400    99956941.49245
  20902608.100   109844015.49509  20902603.320    85592741.39248
  20657213.900   108554447.70609  20657213.480    84587897.89549
 15 02 17 02 45 30.0000000  0  8G04G11G16G18G19G21G22G27
  22811292.680   119874210.59309  22811292.120    93408494.52546
  24503016.940   128764230.77608  24503015.620   100335758.40444
  20717408.360   108870731.92409  20717405.560    84834323.49148
  22414050.020   117786698.69009  22414046.680    91781859.21347
  21797069.460   114544405.93309  21797065.020    89255379.04648
  24424534.160   128351786.29307  24424531.600   100014364.18645
  20899753.040   109829012.14309  20899748.260    85581050.48748
  20652596.080   108530180.71609  20652595.680    84568988.55049
 15 02 17 02 46  0.0000000  0  8G04G11G16G18G19G21G22G27
  22796223.900   119795023.54809  22796223.200    93346790.38546
  24486324.660   128676513.02508  24486323.420   100267407.02344
  20725398.720   108912721.54909  20725395.880    84867042.68048
  22423624.940   117837015.04009  22423621.540    91821066.75947
  21786404.860   114488363.06909  21786400.400    89211709.29148
  24438553.580   128425458.58007  24438551.060   100071771.15544
  20896999.120   109814540.32409  20896994.320    85569773.76248
  20648022.720   108506147.39809  20648022.260    84550261.28949
 15 02 17 02 46 30.0000000  0  8G04G11G16G18G19G21G22G27
  22781200.480   119716075.02809  22781199.820    93285272.11346
  24469649.320   128588884.49208  24469648.100   100199125.13644
  20733489.360   108955238.27009  20733486.500    84900172.58848
  22433278.260   117887743.50809  22433274.860    91860595.43747
  21775767.040   114432461.09209  21775762.600    89168149.31548
  24452568.720   128499108.19907  24452566.040   100129160.43844
  20894346.220   109800599.44309  20894341.420    85558910.74948
  20643493.920   108482348.11209  20643493.420    84531716.38949
 15 02 17 02 47  0.0000000  0  8G04G11G16G18G19G21G22G27
  22766223.220   119637369.11309  22766222.540    93223942.87247
  24452991.740   128501349.18807  24452990.580   100130915.90344
  20741680.840   108998284.73309  20741677.960    84933715.28248
  22443010.320   117938885.92809  22443006.960    91900446.68247
  21765156.960   114376705.13109  21765152.560    89124703.13348
  24466580.100   128572738.20407  24466577.300   100186534.45144
  20891795.120   109787193.45909  20891790.260    85548464.54848
  20639010.500   108458787.53609  20639009.980    84513357.49549
 15 02 17 02 47 30.0000000  0  8G04G11G16G18G19G21G22G27
  22751291.100   119558900.62708  22751290.460    93162798.64846
  24436350.860   128413901.48508  24436349.640   100062774.91244
  20749971.860   109041853.97209  20749968.900    84967665.33048
  22452819.760   117990435.29809  22452816.500    91940615.02647
  21754573.660   114321089.81409  21754569.320    89081366.54348
  24480586.660   128646342.95007  24480583.720   100243888.77644
  20889344.840   109774317.05909  20889339.960    85538430.99648
  20634571.560   108435460.98809  20634571.100    84495180.96249
 15 02 17 02 48  0.0000000  0  8G04G11G16G18G19G21G22G27
  22736404.960   119480673.88809  22736404.280    93101842.79246
  24419727.520   128326545.84607  24419726.180    99994705.68044
  20758362.900   109085948.85909  20758359.900    85002024.97248
  22462707.120   118042394.04409  22462703.940    91981102.35647
  21744018.140   114265620.37909  21744013.780    89038143.62148
  24494589.140   128719926.25007  24494586.320   100301226.38644
  20886996.200   109761974.87709  20886991.320    85528813.72848
  20630178.160   108412373.82309  20630177.720    84477190.96349
 15 02 17 02 48 30.0000000  0  8G04G11G16G18G19G21G22G27
  22721565.000   119402690.16808  22721564.400    93041076.30447
  24403121.880   128239283.37007  24403120.460    99926709.04444
  20766853.920   109130569.21509  20766850.900    85036794.07548
  22472672.160   118094761.04509  22472669.080    92021907.81847
  21733490.620   114210298.18809  21733486.220    88995035.44048
  24508587.260   128793486.62607  24508584.380   100358546.14944
  20884749.440   109750168.07109  20884744.560    85519613.64048
  20625830.640   108389527.78709  20625830.300    84459388.86349
 15 02 17 02 49  0.0000000  0  9G04G11G16G18G19G21G22G27G32
  22706770.160   119324943.30508  22706769.600    92980494.37247
  24386532.680   128152107.63607  24386531.280    99858779.99544
  20775443.460   109175707.35309  20775440.400    85071966.63849
  22482713.380   118147528.22209  22482710.300    92063025.10147
  21722990.040   114155117.43009  21722985.700    88952037.46148
  24522579.780   128867017.55207  24522576.840   100415842.95244
  20882603.340   109738890.14009  20882598.440    85510825.66248
  20621528.000   108366917.42209  20621527.660    84441770.39949
  24502127.440   128759537.17807  24502127.760   100332120.05546
 15 02 17 02 49 30.0000000  0  9G04G11G16G18G19G21G22G27G32
  22692021.480   119247439.03408  22692021.060    92920101.48947
  24369961.060   128065024.38607  24369959.740    99790923.03644
  20784132.280   109221367.15509  20784129.160    85107545.70248
  22492831.360   118200698.78209  22492828.300    92104456.71247
  21712517.560   114100084.34409  21712513.220    88909154.55648
  24536567.700   128940524.27807  24536564.800   100473120.87444
  20880558.940   109728146.49609  20880553.960    85502454.00548
  20617271.420   108344549.15609  20617271.120    84424340.58149
  24479626.520   128641294.24307  24479626.820   100239982.79146
 15 02 17 02 50  0.0000000  0  9G04G11G16G18G19G21G22G27G32
  22677319.900   119170182.44208  22677319.580    92859901.59347
  24353408.140   127978038.88007  24353406.920    99723142.20644
  20792921.060   109267552.32709  20792917.900    85143534.14448
  22503026.720   118254275.86309  22503023.620    92146205.09147
  21702074.360   114045204.75309  21702070.000    88866391.25648
  24550551.680   129014010.51607  24550548.680   100530382.84845
  20878617.200   109717942.31509  20878612.100    85494502.70848
  20613062.080   108322428.82209  20613061.740    84407103.95549
  24457127.860   128523064.29008  24457128.140   100147855.74546
 15 02 17 02 50 30.0000000  0  9G04G11G16G18G19G21G22G27G32
  22662664.220   119093166.67408  22662663.900    92799889.34846
  24336872.520   127891143.90207  24336871.500    99655431.92045
  20801808.160   109314253.89009  20801804.900    85179924.97448
  22513297.760   118308250.57909  22513294.640    92188263.31747
  21691659.080   113990471.92209  21691654.680    88823742.31548
  24564530.260   129087468.32907  24564527.320   100587622.67044
  20876776.680   109708270.29109  20876771.560    85486966.08248
  20608898.820   108300550.34909  20608898.360    84390055.79549
  24434630.800   128404842.32708  24434631.200   100055734.78646
 15 02 17 02 51  0.0000000  0  9G04G11G16G18G19G21G22G27G32
  22648055.120   119016395.55808  22648054.740    92740067.74147
  24320354.800   127804342.70307  24320353.740    99587794.73044
  20810794.000   109361474.60109  20810790.680    85216720.32348
  22523644.700   118362624.05009  22523641.600    92230632.25047
  21681272.460   113935889.82809  21681268.000    88781210.82848
  24578503.820   129160899.79007  24578500.960   100644841.93944
  20875038.080   109699134.23309  20875033.040    85479847.08448
  20604782.420   108278918.07709  20604781.820    84373199.47749
  24412136.480   128286634.71008  24412136.980    99963625.06046
 15 02 17 02 51 30.0000000  0  9G04G11G16G18G19G21G22G27G32
  22633492.540   118939868.53908  22633492.100    92680436.33246
  24303854.880   127717634.89907  24303854.020    99520230.31645
  20819878.140   109409212.06609  20819874.840    85253918.33648
  22534067.140   118417394.07609  22534064.000    92273310.19547
  21670914.520   113881458.52609  21670910.060    88738796.84548
  24592472.040   129234303.51507  24592469.240   100702039.62944
  20873401.320   109690533.12509  20873396.300    85473144.93648
  20600712.920   108257532.26109  20600712.200    84356535.19849
  24389645.180   128168442.82808  24389645.800    99871527.55846
 15 02 17 02 52  0.0000000  0  9G04G11G16G18G19G21G22G27G32
  22618976.840   118863587.79208  22618976.300    92620996.83847
  24287373.100   127631022.59207  24287372.260    99452740.31545
  20829060.660   109457466.66609  20829057.400    85291519.31448
  22544565.020   118472560.71109  22544561.860    92316297.18947
  21660585.780   113827180.64609  21660581.260    88696502.41848
  24606435.160   129307680.92407  24606432.500   100759216.81144
  20871866.760   109682468.87309  20871861.700    85466861.11048
  20596690.840   108236395.84309  20596690.080    84340065.26049
  24367157.760   128050271.46608  24367158.420    99779446.11945
 15 02 17 02 52 30.0000000  0  9G04G11G16G18G19G21G22G27G32
  22604507.340   118787549.80408  22604506.720    92561746.49947
  24270908.800   127544502.26407  24270907.800    99385321.95545
  20838340.440   109506232.49609  20838337.260    85329518.65648
  22555137.200   118528117.76309  22555133.960    92359588.40246
  21650285.660   113773052.99609  21650281.120    88654325.04448
  24620392.500   129381027.68707  24620389.840   100816370.10944
  20870433.600   109674937.72409  20870428.500    85460992.70348
  20592715.660   108215506.00809  20592714.880    84323787.47149
  24344673.940   127932119.49508  24344674.780    99687379.91245
 15 02 17 02 53  0.0000000  0  9G04G11G16G18G19G21G22G27G32
  22590084.720   118711758.29909  22590084.000    92502688.22646
  24254462.720   127458077.62708  24254461.560    99317978.17745
  20847718.080   109555512.59209  20847714.920    85367918.72148
  22565784.040   118584067.58709  22565780.820    92403185.67846
  21640014.980   113719080.04509  21640010.400    88612268.21448
  24634344.580   129454346.53007  24634342.120   100873501.65345
  20869102.560   109667943.27509  20869097.480    85455542.49748
  20588788.260   108194867.38209  20588787.500    84307705.43049
  24322194.920   127813992.66608  24322195.860    99595333.25044
 15 02 17 02 53 30.0000000  0  9G04G11G16G18G19G21G22G27G32
  22575708.780   118636212.48209  22575708.020    92443821.39047
  24238034.760   127371747.86008  24238033.480    99250708.30645
  20857193.200   109605304.85009  20857190.020    85406717.87448
  22576505.040   118640406.87009  22576501.880    92447086.41546
  21629773.680   113665261.77909  21629769.040    88570331.92348
  24648291.120   129527636.14007  24648288.840   100930610.41745
  20867873.500   109661484.71309  20867868.460    85450509.85948
  20584908.660   108174479.90109  20584907.900    84291819.08249
  24299720.960   127695892.53107  24299721.880    99503307.35244
 15 02 17 02 54  0.0000000  0  9G04G11G16G18G19G21G22G27G32
  22561379.580   118560912.20609  22561378.880    92385145.89647
  24221624.720   127285512.26308  24221623.400    99183511.83345
  20866765.240   109655606.51109  20866762.100    85445913.95848
  22587299.680   118697133.00209  22587296.500    92491288.59646
  21619561.760   113611598.15309  21619557.180    88528516.12948
  24662231.780   129600894.97407  24662229.500   100987695.20644
  20866746.300   109655561.28709  20866741.240    85445894.21548
  20581076.940   108154343.98009  20581076.200    84276128.75849
  24277252.440   127577820.85407  24277253.140    99411303.52844
 15 02 17 02 54 30.0000000  0  9G04G11G16G18G19G21G22G27G32
  22547097.660   118485859.99209  22547096.880    92326663.69647
  24205233.160   127199373.66608  24205231.720    99116390.93945
  20876434.400   109706418.37409  20876431.260    85485507.61348
  22598167.980   118754246.58509  22598164.860    92535792.68946
  21609379.900   113558092.36409  21609375.320    88486823.32948
  24676166.700   129674123.64307  24676164.620   101044756.49145
  20865721.380   109650175.29609  20865716.360    85441697.35549
  20577293.740   108134463.10909  20577293.020    84260637.17449
  24254790.420   127459782.88407  24254790.960    99319325.98144
 15 02 17 02 55  0.0000000  0  9G04G11G16G18G19G21G22G27G32
  22532862.860   118411055.43209  22532862.000    92268374.45747
  24188859.900   127113331.30908  24188858.240    99049345.02545
  20886200.200   109757738.38909  20886197.160    85525497.21948
  22609109.500   118811745.02809  22609106.460    92580596.67346
  21599228.160   113504744.71309  21599223.560    88445253.74948
  24690095.900   129747321.89906  24690093.720   101101794.06445
  20864798.580   109645326.07209  20864793.580    85437918.75248
  20573559.180   108114837.77709  20573558.500    84245344.71349
  24232335.260   127341780.55807  24232335.760    99227376.19045
 15 02 17 02 55 30.0000000  0  9G04G11G16G18G19G21G22G27G32
  22518674.500   118336494.92009  22518673.500    92210275.40147
  24172504.260   127027382.18808  24172502.520    98982371.73445
  20896061.640   109809561.02609  20896058.660    85565878.47848
  22620123.240   118869622.74309  22620120.260    92625696.19146
  21589105.940   113451552.18809  21589101.320    88403805.04148
  24704018.480   129820485.24107  24704016.440   101158804.42945
  20863977.200   109641009.67009  20863972.140    85434555.32848
  20569872.660   108095465.12809  20569872.000    84230249.14549
  24209886.780   127223812.74408  24209887.240    99135453.26046
 15 02 17 02 56  0.0000000  0  9G04G11G16G18G19G21G22G27G32
  22504533.860   118262185.19809  22504532.820    92152371.75647
  24156167.460   126941532.38708  24156165.700    98915475.85344
  20906019.760   109861891.71009  20906016.860    85606655.62248
  22631210.020   118927884.01309  22631207.040    92671094.57746
  21579014.600   113398521.61809  21579009.920    88362482.52648
  24717935.640   129893619.32507  24717933.220   101215792.00144
  20863258.420   109637232.41909  20863253.340    85431612.02848
  20566235.600   108076352.55309  20566235.000    84215356.23249
  24187446.580   127105888.41108  24187446.940    99043564.22645
 15 02 17 02 56 30.0000000  0  9G04G11G16G18G19G21G22G27G32
  22490439.960   118188121.26409  22490438.980    92094659.66147
  24139848.740   126855777.35208  24139847.020    98848653.80945
  20916073.260   109914723.31109  20916070.420    85647823.08548
  22642368.460   118986521.86909  22642365.540    92716786.41746
  21568953.300   113345649.25509  21568948.680    88321283.30248
  24731846.120   129966718.67906  24731843.480   101272752.50244
  20862641.180   109633988.90609  20862636.100    85429084.63148
  20562647.280   108057496.14609  20562646.700    84200662.93249
  24165014.300   126988005.05408  24165014.400    98951707.07745
 15 02 17 02 57  0.0000000  0  9G04G11G16G18G19G21G22G27G32
  22476393.400   118114306.34009  22476392.480    92037141.56947
  24123548.620   126770119.69308  24123546.820    98781907.63145
  20926222.400   109968057.16509  20926219.560    85689381.92948
  22653598.740   119045537.30009  22653595.860    92762772.46546
  21558922.760   113292938.61409  21558918.200    88280210.09348
  24745750.280   130039785.50706  24745747.980   101329687.68644
  20862126.000   109631282.04509  20862121.000    85426975.40848
  20559108.480   108038899.76609  20559107.880    84186172.24849
  24142590.880   126870168.32708  24142590.760    98859886.32746
 15 02 17 02 57 30.0000000  0  9G04G11G16G18G19G21G22G27G32
  22462394.580   118040742.33109  22462393.680    91979819.01347
  24107267.380   126684561.23408  24107265.540    98715238.77145
  20936467.100   110021893.11209  20936464.260    85731332.00748
  22664900.740   119104929.86309  22664897.840    92809052.37446
  21548923.480   113240391.96409  21548918.900    88239264.66048
  24759648.220   130112820.28906  24759646.140   101386597.83444
  20861713.260   109629113.21909  20861708.340    85425285.42748
  20555619.680   108020566.04309  20555619.080    84171886.23249
  24120177.020   126752382.29008  24120176.660    98768105.07946
 15 02 17 02 58  0.0000000  0  9G04G11G16G18G19G21G22G27G32
  22448443.200   117967427.40309  22448442.260    91922690.53047
  24091004.660   126599100.59107  24091002.900    98648646.13045
  20946806.820   110076228.22909  20946803.880    85773671.04948
  22676273.700   119164695.47309  22676270.780    92855622.98846
  21538955.300   113188008.41509  21538950.580    88198446.33048
  24773539.600   130185820.00506  24773537.380   101443480.72145
  20861402.500   109627480.20109  20861397.600    85424012.96648
  20552180.700   108002494.12309  20552180.100    84157804.21849
  24097772.880   126634647.84808  24097772.420    98676364.14046
 15 02 17 02 58 30.0000000  0  9G04G11G16G18G19G21G22G27G32
  22434539.600   117894363.54909  22434538.640    91865757.69347
  24074760.940   126513739.76608  24074759.140    98582131.25944
  20957241.500   110131062.46209  20957238.500    85816399.01248
  22687717.720   119224834.14609  22687714.760    92902484.28746
  21529018.600   113135790.49109  21529013.760    88157757.03948
  24787424.780   130258786.68706  24787422.180   101500337.81544
  20861194.000   109626384.66509  20861189.100    85423159.31448
  20548792.100   107984686.99609  20548791.520    84143928.54149
  24075379.300   126516969.51108  24075378.840    98584666.92246
 15 02 17 02 59  0.0000000  0  9G04G11G16G18G19G21G22G27G32
  22420683.020   117821546.80309  22420682.040    91809017.40047
  24058535.460   126428474.43508  24058533.580    98515690.80044
  20967769.980   110186389.81109  20967766.920    85859511.21248
  22699231.520   119285339.44209  22699228.560    92949631.26146
  21519112.700   113083735.01909  21519107.900    88117194.35248
  24801302.880   130331715.99906  24801300.320   101557165.81344
  20861086.880   109625821.98209  20861082.020    85422720.86248
  20545453.200   107967141.32409  20545452.720    84130256.58749
  24052996.000   126399345.28708  24052995.620    98493011.86846
 15 02 17 02 59 30.0000000  0  9G04G11G16G18G19G21G22G27G32
  22406874.460   117748982.74609  22406873.560    91752474.03847
  24042329.240   126343310.40008  24042327.180    98449329.26644
  20978392.960   110242213.87709  20978389.940    85903010.48448
  22710815.800   119346214.98708  22710812.820    92997066.75146
  21509238.840   113031847.92109  21509234.100    88076762.86348
  24815174.520   130404611.62306  24815172.160   101613967.59244
  20861082.100   109625797.18409  20861077.320    85422701.55349
  20542165.340   107949863.62909  20542164.900    84116793.45249
  24030624.420   126281783.26208  24030624.200    98401405.22046
 15 02 17 03 00  0.0000000  0  9G04G11G16G18G19G21G22G27G32
  22393113.500   117676668.48709  22393112.480    91696125.30747
  24026141.720   126258244.74408  24026139.580    98383044.40344
  20989109.540   110298529.68509  20989106.460    85946892.91948
  22722469.580   119407455.67809  22722466.540    93044786.76546
  21499396.700   112980127.12609  21499392.000    88036460.96348
  24829039.180   130477470.44806  24829036.720   101670740.66443
  20861179.120   109626307.15109  20861174.380    85423098.94448
  20538928.160   107932851.84709  20538927.640    84103537.52249
  24008264.640   126164283.02608  24008264.360    98309846.71345
 15 02 17 03 00 30.0000000  0  9G04G11G16G18G19G21G22G27G32
  22379400.580   117604606.44309  22379399.460    91639973.10647
  24009973.300   126173279.66807  24009971.180    98316837.89344
  20999919.940   110355338.28709  20999916.780    85991159.36048
  22734192.900   119469061.77308  22734189.840    93092791.50846
  21489586.900   112928575.92709  21489582.120    87996291.20848
  24842897.040   130550293.75707  24842894.620   101727486.05944
  20861378.340   109627353.91409  20861373.600    85423914.61449
  20535742.260   107916109.43509  20535741.660    84090491.48949
  23985917.640   126046849.55508  23985917.320    98218340.20045
 15 02 17 03 01  0.0000000  0  9G04G11G16G18G19G21G22G27G32
  22365735.400   117532795.30609  22365734.160    91584016.41947
  23993823.820   126088414.39508  23993821.800    98250709.18045
  21010823.380   110412635.94109  21010820.120    86035806.87548
  22745985.140   119531029.77609  22745981.940    93141078.25846
  21479809.220   112877193.76109  21479804.440    87956253.17348
  24856747.880   130623080.01106  24856745.360   101784202.63244
  20861679.400   109628935.56709  20861674.540    85425147.07748
  20532607.540   107899635.93709  20532606.860    84077655.00149
  23963583.680   125929483.86908  23963583.160    98126886.43544
 15 02 17 03 01 30.0000000  0  9G04G11G16G18G19G21G22G27G32
  22352117.820   117461234.40809  22352116.500    91528254.72447
  23977693.240   126003648.02708  23977691.300    98184657.53245
  21021819.500   110470420.82009  21021816.220    86080834.04348
  22757845.700   119593356.84108  22757842.360    93189644.78746
  21470063.700   112825980.78209  21470058.880    87916346.96248
  24870591.400   130695827.65606  24870588.560   101840889.08044
  20862082.060   109631051.07609  20862077.060    85426795.53248
  20529523.980   107883431.63009  20529523.280    84065028.26649
  23941263.100   125812188.10108  23941262.240    98035487.14445
 15 02 17 03 02  0.0000000  0  9G04G11G16G18G19G21G22G27G32
  22338548.300   117389926.03909  22338546.940    91472689.78947
  23961581.960   125918982.68708  23961579.980    98118684.58744
  21032908.160   110528692.31909  21032904.980    86126240.39248
  22769774.480   119656042.93208  22769771.100    93238491.08046
  21460350.900   112774939.84409  21460346.080    87876574.80848
  24884427.840   130768538.33906  24884425.000   101897546.77143
  20862586.560   109633702.06509  20862581.480    85428861.24048
  20526492.220   107867499.60309  20526491.500    84052613.69449
  23918956.660   125694967.19608  23918955.680    97944146.32245
 15 02 17 03 02 30.0000000  0  9G04G11G16G18G19G21G22G27G32
  22325027.120   117318871.77409  22325025.600    91417322.87347
  23945490.360   125834420.22208  23945488.200    98052791.80344
  21044089.440   110587450.47309  21044086.300    86172025.96648
  22781771.360   119719087.33708  22781768.080    93287616.57446
  21450671.180   112724072.63509  21450666.360    87836938.03348
  24898257.220   130841212.22406  24898254.540   101954175.75644
  20863193.000   109636888.98209  20863187.900    85431344.56148
  20523512.740   107851842.22709  20523511.980    84040413.14549
  23896665.100   125577825.09308  23896664.260    97852867.10745
 15 02 17 03 03  0.0000000  0  9G04G11G16G18G19G21G22G27G32
  22311553.700   117248068.63709  22311552.060    91362151.63247
  23929417.640   125749957.54008  23929415.500    97986976.78945
  21055362.460   110646690.95909  21055359.420    86218187.37148
  22793835.420   119782484.99208  22793832.300    93337017.33046
  21441024.260   112673377.61309  21441019.420    87797435.43248
  24912078.980   130913846.17906  24912076.100   102010773.58644
  20863900.820   109640608.95009  20863895.780    85434243.25148
  20520585.140   107836457.62009  20520584.360    84028425.13949
  23874388.240   125460760.77008  23874387.540    97761648.28145
 15 02 17 03 03 30.0000000  0  9G04G11G16G18G19G21G22G27G32
  22298128.800   117177520.70809  22298127.120    91307179.25747
  23913364.620   125665598.58208  23913362.620    97921242.59145
  21066727.600   110706415.34609  21066724.580    86264725.84548
  22805967.080   119846237.59008  22805964.060    93386694.67146
  21431410.980   112622859.66409  21431406.160    87758070.79948
  24925893.820   130986443.64506  24925890.840   102067343.03843
  20864710.800   109644865.46309  20864705.740    85437560.01848
  20517710.340   107821350.63509  20517709.560    84016653.45949
  23852127.520   125343781.02708  23852126.940    97670495.32045
 15 02 17 03 04  0.0000000  0  9G04G11G16G18G19G21G22G27G32
  22284751.820   117107224.14609  22284750.100    91252402.73947
  23897330.680   125581339.84208  23897328.740    97855586.49445
  21078183.640   110766617.67109  21078180.680    86311636.73948
  22818165.280   119910339.30308  22818162.240    93436644.04146
  21421830.840   112572515.77509  21421826.040    87718841.81548
  24939700.920   131059000.13006  24939697.840   102123880.49544
  20865622.000   109649653.90709  20865616.920    85441291.28148
  20514887.820   107806518.48409  20514887.080    84005095.93949
  23829882.760   125226884.75708  23829882.300    97579407.38246
 15 02 17 03 04 30.0000000  0  9G04G11G16G18G19G21G22G27G32
  22271422.880   117037180.49309  22271421.180    91197823.30847
  23881316.180   125497182.94508  23881314.280    97790009.73645
  21089730.500   110827297.08709  21089727.540    86358919.38948
  22830429.760   119974789.37308  22830426.700    93486864.87146
  21412284.240   112522348.33209  21412279.460    87679750.30348
  24953500.360   131131516.55806  24953497.380   102180386.79344
  20866634.620   109654975.22909  20866629.540    85445437.77248
  20512118.120   107791963.68909  20512117.400    83993754.53449
  23807654.760   125110076.17308  23807654.300    97488387.81846
 15 02 17 03 05  0.0000000  0  9G04G11G16G18G19G21G22G27G32
  22258142.600   116967392.52609  22258140.840    91143443.09947
  23865321.540   125413130.50008  23865319.620    97724514.37846
  21101368.480   110888455.25009  21101365.560    86406575.08848
  22842760.640   120039588.43008  22842757.520    93537357.62846
  21402771.800   112472360.39309  21402767.080    87640798.66848
  24967292.420   131203994.54906  24967289.420   102236863.09844
  20867749.080   109660831.69809  20867743.980    85450001.26748
  20509401.880   107777689.80109  20509401.180    83982632.01849
  23785444.420   124993360.28208  23785443.960    97397440.48646
 15 02 17 03 05 30.0000000  0  9G04G11G16G18G19G21G22G27G32
  22244910.580   116897857.60309  22244908.740    91089260.07547
  23849346.260   125329180.05808  23849344.420    97659098.50645
  21113096.640   110950087.31009  21113093.820    86454600.06348
  22855157.040   120104731.90208  22855153.800    93588118.75646
  21393293.240   112422550.49509  21393288.580    87601985.77348
  24981076.620   131276431.09506  24981073.480   102293307.12544
  20868964.680   109667219.70609  20868959.560    85454978.94648
  20506738.800   107763695.27409  20506738.180    83971727.19549
  23763251.740   124876737.21108  23763251.220    97306565.49245
 15 02 17 03 06  0.0000000  0  9G04G11G16G18G19G21G22G27G32
  22231726.820   116828576.47409  22231725.020    91035274.81647
  23833390.480   125245332.28008  23833388.680    97593762.64345
  21124914.700   111012191.73409  21124911.960    86502993.10548
  22867618.560   120170217.75208  22867615.320    93639146.68446
  21383848.920   112372920.04509  21383844.180    87563312.70448
  24994852.980   131348826.30106  24994850.140   102349718.96144
  20870281.380   109674139.16709  20870276.260    85460370.74148
  20504129.180   107749981.69109  20504128.640    83961041.28949
  23741077.300   124760210.25808  23741076.760    97215765.46146
 15 02 17 03 06 30.0000000  0  9G04G11G16G18G19G21G22G27G32
  22218591.920   116759552.67609  22218590.300    90981490.08447
  23817455.020   125161591.21208  23817453.220    97528509.93246
  21136823.000   111074770.09209  21136820.260    86551755.45348
  22880145.500   120236047.38208  22880142.320    93690442.48046
  21374439.580   112323473.39609  21374434.740    87524782.84548
  25008622.080   131421183.48306  25008619.700   102406101.13044
  20871699.800   109681593.38409  20871694.740    85466179.23548
  20501573.960   107736553.69609  20501573.400    83950577.91249
  23718922.240   124643785.52708  23718921.680    97125045.09546
 15 02 17 03 07  0.0000000  0  9G04G11G16G18G19G21G22G27G32
  22205505.180   116690781.50609  22205503.500    90927902.18647
  23801538.920   125077951.92808  23801537.140    97463336.53445
  21148820.160   111137815.59609  21148817.440    86600881.81448
  22892736.600   120302214.20108  22892733.480    93742001.03046
  21365064.500   112274206.94709  21365059.640    87486393.41748
  25022382.880   131493496.93306  25022380.460   102462449.29243
  20873219.000   109689576.97109  20873214.000    85472400.22149
  20499072.320   107723407.40809  20499071.700    83940334.05149
  23696786.140   124527460.73808  23696785.640    97034402.58046
 15 02 17 03 07 30.0000000  0  9G04G11G16G18G19G21G22G27G32
  22192466.900   116622265.28209  22192465.240    90874512.95547
  23785642.640   124994416.57108  23785640.860    97398244.10946
  21160906.400   111201328.73709  21160903.580    86650372.56948
  22905391.960   120368718.53708  22905388.820    93793822.58546
  21355724.260   112225123.80409  21355719.460    87448146.83248
  25036135.760   131565768.62906  25036132.940   102518764.86444
  20874839.240   109698091.48709  20874834.260    85479034.91948
  20496624.920   107710546.28709  20496624.260    83930312.40249
  23674670.040   124411240.87808  23674669.620    96943841.74445
 15 02 17 03 08  0.0000000  0  9G04G11G16G18G19G21G22G27G32
  22179477.460   116554006.24909  22179476.060    90821324.13747
  23769766.660   124910988.00108  23769764.860    97333234.89745
  21173081.520   111265309.15409  21173078.620    86700227.42748
  22918111.420   120435559.79308  22918108.360    93845906.66446
  21346419.480   112176227.09709  21346414.740    87410045.50248
  25049880.880   131638000.00906  25049878.220   102575049.02544
  20876560.760   109707138.14109  20876555.800    85486084.27748
  20494232.360   107697973.34909  20494231.640    83920515.30449
  23652574.900   124295130.66108  23652574.480    96853366.30445
 15 02 17 03 08 30.0000000  0  9G04G11G16G18G19G21G22G27G32
  22166536.360   116486000.82509  22166535.160    90768332.92847
  23753910.300   124827662.51108  23753908.480    97268305.98545
  21185344.520   111329751.46509  21185341.580    86750442.19948
  22930894.020   120502732.59108  22930890.900    93898249.08446
  21337149.740   112127514.37409  21337145.020    87372087.53848
  25063617.440   131710186.93106  25063615.000   102631298.57144
  20878382.680   109716712.59209  20878377.740    85493544.89648
  20491894.200   107685686.11209  20491893.420    83910940.82949
  23630500.580   124179129.34008  23630500.000    96762975.71345
 15 02 17 03 09  0.0000000  0  9G04G11G16G18G19G21G22G27G32
  22153644.140   116418252.23509  22153643.040    90715541.85247
  23738074.180   124744443.58808  23738072.440    97203460.13646
  21197695.720   111394657.12809  21197692.680    86801018.03448
  22943739.900   120570237.57908  22943736.680    93950850.35746
  21327915.680   112078989.18009  21327911.000    87334275.70448
  25077346.260   131782332.17006  25077343.860   102687515.58744
  20880305.600   109726817.61809  20880300.620    85501418.94848
  20489611.200   107673688.70509  20489610.420    83901592.19949
  23608448.080   124063242.62008  23608447.420    96672674.44545
 15 02 17 03 09 30.0000000  0  9G04G11G16G18G19G21G22G27G32
  22140800.480   116350758.83709  22140799.420    90662949.62047
  23722257.980   124661329.54508  23722256.340    97138696.02145
  21210134.420   111460022.57209  21210131.340    86851952.13648
  22956648.280   120638071.19808  22956644.980    94003707.71647
  21318717.260   112030651.26109  21318712.580    87296609.80048
  25091066.820   131854433.66806  25091064.240   102743698.58344
  20882329.180   109737451.33509  20882324.080    85509704.98048
  20487383.260   107661980.67309  20487382.500    83892469.06149
  23586417.660   123947471.97108  23586416.800    96582463.74845
 15 02 17 03 10  0.0000000  0  8G04G11G16G18G19G22G27G32
  22128005.740   116283522.14009  22128004.720    90610557.42047
  23706461.960   124578321.80108  23706460.400    97074014.71945
  21222660.380   111525846.49509  21222657.300    86903243.48648
  22969619.080   120706232.63408  22969615.700    94056820.49946
  21309554.880   111982502.66909  21309550.200    87259091.42248
  20884453.340   109748613.73209  20884448.160    85518402.95848
  20485210.820   107650564.35509  20485210.040    83883573.22549
  23564409.960   123831820.86108  23564408.800    96492346.07846
 15 02 17 03 10 30.0000000  0  9G01G04G11G16G18G19G22G27G32
  24599410.880                                                  
  22115260.060   116216543.02709  22115259.000    90558365.91747
  23690686.600   124495422.14708  23690685.160    97009417.64446
  21235273.480   111592128.35509  21235270.360    86954891.67648
  22982652.020   120774720.78308  22982648.580    94110187.87146
  21300428.940   111934545.59609  21300424.280    87221722.27948
  20886678.200   109760305.21609  20886672.980    85527513.21748
  20483094.340   107639441.88909  20483093.500    83874906.37649
  23542425.700   123716293.18908  23542424.440    96402324.53446
 15 02 17 03 11  0.0000000  0  9G01G04G11G16G18G19G22G27G32
  24583778.700   129188629.49008  24583781.040   100666471.46044
  22102563.080   116149820.17509  22102562.060    90506374.11347
  23674931.540   124412628.76708  23674930.020    96944903.36846
  21247972.900   111658863.81109  21247969.720    87006893.31148
  22995746.320   120843531.78608  22995742.880    94163806.81846
  21291339.280   111886779.27909  21291334.660    87184501.76848
  20889003.200   109772523.26009  20888998.000    85537033.77348
  20481033.620   107628612.61909  20481032.760    83866467.97849
  23520465.120   123600889.88608  23520463.840    96312399.84145
 15 02 17 03 11 30.0000000  0  9G01G04G11G16G18G19G22G27G32
  24568173.740   129106626.07308  24568176.000   100602572.92944
  22089914.640   116083352.13009  22089913.560    90454580.87647
  23659196.500   124329940.36008  23659194.900    96880470.91645
  21260757.960   111726049.55709  21260754.780    87059245.83748
  23008901.320   120912662.10108  23008898.000    94217674.59246
  21282285.940   111839203.53809  21282281.300    87147429.78048
  20891427.920   109785265.62509  20891422.820    85546962.91048
  20479028.560   107618076.18609  20479027.760    83858257.78349
  23498528.520   123485612.51908  23498527.320    96222573.36046
 15 02 17 03 12  0.0000000  0  9G01G04G11G16G18G19G22G27G32
  24552597.500   129024773.36407  24552600.160   100538791.74144
  22077315.780   116017144.21409  22077314.620    90402990.32747
  23643482.460   124247362.55408  23643480.840    96816124.63145
  21273629.320   111793689.12409  21273626.220    87111951.98148
  23022117.640   120982114.87008  23022114.480    94271793.62546
  21273270.080   111791824.83909  21273265.420    87110511.32448
  20893953.340   109798537.04709  20893948.300    85557304.29148
  20477080.460   107607838.99909  20477079.720    83850280.75849
  23476617.480   123370469.09508  23476616.180    96132851.28346
 15 02 17 03 12 30.0000000  0  9G01G04G11G16G18G19G22G27G32
  24537049.220   128943067.37907  24537051.820   100475124.83044
  22064765.600   115951192.32309  22064764.400    90351599.27047
  23627788.600   124164891.19408  23627786.920    96751861.26846
  21286585.820   111861776.17209  21286582.820    87165006.80348
  23035394.140   121051883.80508  23035391.060    94326159.00046
  21264291.020   111744639.69509  21264286.400    87073743.68348
  20896578.540   109812332.70509  20896573.520    85568054.14948
  20475188.720   107597897.90909  20475188.000    83842534.43949
  23454731.540   123255458.02508  23454730.320    96043232.37246
 15 02 17 03 13  0.0000000  0  9G01G04G11G16G18G19G22G27G32
  24521529.120   128861509.50207  24521531.880   100411573.24745
  22052264.360   115885497.71109  22052263.040    90300408.69647
  23612115.200   124082527.78108  23612113.700    96687682.05045
  21299627.220   111930309.64309  21299624.320    87218409.49848
  23048730.540   121121967.46808  23048727.560    94380769.63246
  21255349.280   111697650.49209  21255344.660    87037128.72448
  20899303.540   109826652.80509  20899298.520    85579212.68348
  20473353.840   107588255.28209  20473353.080    83835020.70249
  23432871.480   123140583.32508  23432870.360    95953719.68446
 15 02 17 03 13 30.0000000  0  9G01G04G11G16G18G19G22G27G32
  24506037.320   128780100.46107  24506040.400   100348137.64545
  22039812.160   115820060.88009  22039810.780    90249418.99247
  23596462.560   124000273.21508  23596461.120    96623587.64946
  21312753.220   111999287.72809  21312750.460    87272158.63648
  23062126.720   121192365.00008  23062123.740    94435624.83846
  21246445.160   111650858.92009  21246440.500    87000667.75948
  20902128.200   109841496.86209  20902123.200    85590779.48848
  20471576.020   107578912.61409  20471575.220    83827740.69749
  23411038.000   123025848.04408  23411036.920    95864315.59846
 15 02 17 03 14  0.0000000  0  9G01G04G11G16G18G19G22G27G32
  24490573.700   128698839.21707  24490577.020   100284817.15245
  22027408.760   115754880.62009  22027407.420    90198629.22247
  23580830.440   123918126.32708  23580829.080    96559577.15246
  21325963.280   112068707.25909  21325960.580    87326251.76548
  23075581.980   121263072.66408  23075578.940    94490721.70646
  21237578.460   111604264.25509  21237573.820    86964360.24048
  20905052.140   109856862.64309  20905047.200    85602752.83148
  20469855.240   107569869.67609  20469854.400    83820694.25149
  23389231.300   122911253.65608  23389230.460    95775021.30946
 15 02 17 03 14 30.0000000  0  9G01G04G11G16G18G19G22G27G32
  24475138.460   128617726.84906  24475142.040   100221612.76946
  22015054.380   115689957.78309  22015052.960    90148040.03447
  23565219.000   123836088.12308  23565217.620    96495651.34146
  21339257.080   112138566.97209  21339254.420    87380687.89348
  23089095.960   121334088.87108  23089092.900    94546058.99946
  21228749.640   111557868.69509  21228745.040    86928207.86448
  20908075.460   109872750.43109  20908070.540    85615132.93348
  20468191.880   107561128.41809  20468190.940    83813882.87449
  23367452.160   122796803.99708  23367451.400    95685839.82846
 15 02 17 03 15  0.0000000  0  9G01G04G11G16G18G19G22G27G32
  24459731.600   128536763.67306  24459735.320   100158524.82446
  22002749.000   115625292.34609  22002747.400    90097651.41047
  23549628.220   123754158.71008  23549626.780    96431810.31946
  21352634.180   112208864.34109  21352631.560    87435465.04948
  23102668.320   121405411.66608  23102665.200    94601635.19046
  21219958.900   111511673.21509  21219954.340    86892211.40248
  20911197.960   109889159.19809  20911193.020    85627918.98948
  20466586.060   107552689.80809  20466585.140    83807307.32649
  23345701.080   122682501.46808  23345700.240    95596772.98646
 15 02 17 03 15 30.0000000  0  9G01G04G11G16G18G19G22G27G32
  24444353.440   128455951.49606  24444357.140   100095554.48245
  21990492.920   115560886.33509  21990491.300    90047464.94147
  23534058.700   123672340.32808  23534057.120    96368055.78546
  21366094.600   112279599.30509  21366091.960    87490583.19248
  23116298.940   121477040.64208  23116295.740    94657449.96046
  21211206.880   111465680.92909  21211202.340    86856373.26848
  20914419.820   109906089.84509  20914414.800    85641111.70348
  20465038.360   107544556.92109  20465037.520    83800970.00749
  23323978.960   122568350.91308  23323978.120    95507824.53945
 15 02 17 03 16  0.0000000  0  9G01G04G11G16G18G19G22G27G32
  24429003.840   128375290.14107  24429007.720   100032701.92946
  21978286.020   115496738.84209  21978284.460    89997479.92647
  23518510.280   123590632.51608  23518508.620    96304387.40745
  21379637.740   112350768.85709  21379635.080    87546039.97648
  23129987.220   121548972.77408  23129983.940    94713500.95946
  21202493.620   111419892.18709  21202489.040    86820693.72848
  20917740.680   109923540.71409  20917735.540    85654709.79148
  20463548.880   107536730.05009  20463548.140    83794871.14649
  23302286.140   122454354.13508  23302285.140    95418995.92746
 15 02 17 03 16 30.0000000  0  9G01G04G11G16G18G19G22G27G32
  24413682.700   128294778.19707  24413686.520    99969965.45646
  21966128.240   115432849.47909  21966126.720    89947696.05047
  23502982.700   123509034.77408  23502981.080    96240804.82946
  21393263.060   112422370.27309  21393260.360    87601833.26948
  23143732.640   121621205.16808  23143729.260    94769785.91946
  21193819.220   111374307.50509  21193814.560    86785173.20349
  20921160.240   109941510.25009  20921155.020    85668712.02948
  20462117.700   107529209.61609  20462117.060    83789011.06449
  23280622.980   122340513.37708  23280621.880    95330288.90246
 15 02 17 03 17  0.0000000  0  9G01G04G11G16G18G19G22G27G32
  24398390.620   128214418.26307  24398394.420    99907347.46746
  21954019.960   115369220.15709  21954018.420    89898114.79347
  23487476.440   123427549.12808  23487474.760    96177309.59045
  21406970.460   112494402.92809  21406967.740    87657962.59448
  23157535.160   121693737.91808  23157531.820    94826304.92746
  21185184.160   111328929.57709  21185179.420    86749813.78148
  20924678.680   109959999.50709  20924673.440    85683119.24048
  20460745.440   107521998.63609  20460744.860    83783392.11849
  23258990.360   122226833.35408  23258989.240    95241707.13646
 15 02 17 03 17 30.0000000  0  9G01G04G11G16G18G19G22G27G32
  24383126.640   128134205.73007  24383130.320    99844844.42346
  21941960.140   115305845.60909  21941958.540    89848732.06147
  23471990.660   123346171.00908  23471988.740    96113898.10845
  21420758.480   112566859.40509  21420755.780    87714422.17048
  23171393.440   121766563.86808  23171390.220    94883052.40846
  21176587.680   111283754.66809  21176582.900    86714612.55748
  20928294.780   109979002.30309  20928289.560    85697926.62248
  20459431.380   107515093.11709  20459430.800    83778011.18649
  23237387.780   122113311.70308  23237386.740    95153248.80046
 15 02 17 03 18  0.0000000  0  9G01G04G11G16G18G19G22G27G32
  24367892.120   128054147.96907  24367895.740    99782461.89146
  21929950.380   115242733.83609  21929948.660    89799554.07747
  23456526.840   123264908.32908  23456524.880    96050576.59446
  21434628.380   112639745.97409  21434625.620    87771216.88348
  23185308.520   121839688.29108  23185305.420    94940032.45646
  21168031.520   111238791.79309  21168026.740    86679576.55748
  20932009.860   109998525.53309  20932004.720    85713139.52649
  20458177.140   107508501.88909  20458176.560    83772875.16049
  23215817.400   121999958.95308  23215816.340    95064922.04846
 15 02 17 03 18 30.0000000  0  9G01G04G11G16G18G19G22G27G32
  24352686.100   127974239.87308  24352689.640    99720196.02346
  21917989.440   115179879.12909  21917987.740    89750576.41847
  23441083.880   123183755.38908  23441081.920    95987340.60646
  21448578.640   112713054.53909  21448575.800    87828340.42548
  23199278.960   121913103.53008  23199275.900    94997239.11546
  21159514.740   111194036.23509  21159510.020    86644702.10248
  20935822.700   110018562.42109  20935817.640    85728752.69049
  20456981.880   107502220.44509  20456981.300    83767980.52849
  23194278.580   121886772.13708  23194277.580    94976724.57646
 15 02 17 03 19  0.0000000  0  9G01G04G11G16G18G19G22G27G32
  24337508.740   127894482.49208  24337512.240    99658047.58446
  21906077.620   115117282.66009  21906075.940    89701799.97947
  23425662.160   123102713.90308  23425660.220    95924191.45845
  21462608.960   112786783.76609  21462606.040    87885791.76548
  23213304.540   121986808.41408  23213301.520    95054671.47146
  21151037.860   111149490.33509  21151033.180    86609991.02548
  20939733.400   110039113.21909  20939728.400    85744766.30849
  20455845.980   107496250.94309  20455845.360    83763328.96249
  23172772.140   121773755.21108  23172771.160    94888659.47546
 15 02 17 03 19 30.0000000  0  9G01G04G11G16G18G19G22G27G32
  24322360.680   127814879.27008  24322364.060    99596019.21446
  21894215.560   115054947.73709  21894213.980    89653227.33247
  23410262.420   123021787.61808  23410260.280    95861132.04245
  21476719.340   112860933.99309  21476716.360    87943571.14048
  23227385.400   122060803.86108  23227382.440    95112330.23546
  21142601.700   111105158.27009  21142597.060    86575446.56148
  20943742.320   110060179.87609  20943737.280    85761181.88249
  20454770.260   107490597.71209  20454769.600    83758923.84349
  23151299.120   121660914.12108  23151298.220    94800731.38446
 15 02 17 03 20  0.0000000  0  9G01G04G11G16G18G19G22G27G32
  24307241.360   127735427.03008  24307244.620    99534108.50945
  21882402.640   114992870.96509  21882401.240    89604855.85647
  23394883.940   122940973.32808  23394881.620    95798159.90545
  21490908.980   112935500.74509  21490905.900    88001675.09248
  23241520.620   122135084.89408  23241517.700    95170211.54746
  21134205.840   111061038.10609  21134201.280    86541067.21948
  20947848.560   110081758.09209  20947843.460    85777996.07749
  20453754.280   107485258.50409  20453753.520    83754763.42449
  23129859.500   121548248.39108  23129858.580    94712939.93546
 15 02 17 03 20 30.0000000  0  9G01G04G11G16G18G19G22G27G32
  24292150.700   127656125.61507  24292153.920    99472315.27246
  21870638.860   114931052.00709  21870637.460    89556685.26647
  23379526.680   122860270.86008  23379524.420    95735274.92045
  21505177.260   113010480.75509  21505174.140    88060101.06848
  23255709.660   122209648.66308  23255706.700    95228313.17146
  21125850.480   111017130.64509  21125845.940    86506853.61348
  20952051.920   110103846.68009  20952046.700    85795207.96749
  20452798.140   107480234.15209  20452797.420    83750848.33349
  23108453.740   121435760.45208  23108452.760    94625287.01446
 15 02 17 03 21  0.0000000  0  9G01G04G11G16G18G19G22G27G32
  24277089.320   127576978.07807  24277092.320    99410641.95945
  21858924.700   114869493.90709  21858923.260    89508717.94047
  23364191.340   122779683.30408  23364189.140    95672479.47145
  21519524.220   113085874.91409  21519521.180    88118849.74748
  23269952.680   122284496.01208  23269949.640    95286635.76647
  21117536.420   110973440.04909  21117531.880    86472809.00149
  20956352.720   110126447.44709  20956347.460    85812818.95149
  20451902.680   107475528.59609  20451901.960    83747181.67349
  23087082.880   121323456.04808  23087081.940    94537777.10146
 15 02 17 03 21 30.0000000  0  9G01G04G11G16G18G19G22G27G32
  24262056.720   127497982.17307  24262059.780    99349086.83345
  21847259.620   114808194.14409  21847258.260    89460951.92247
  23348877.440   122699208.61608  23348875.180    95609771.97945
  21533949.020   113161678.26509  21533946.040    88177917.27748
  23284248.860   122359622.49108  23284245.740    95345175.85347
  21109263.380   110929964.85209  21109258.820    86438932.22648
  20960750.260   110149556.76509  20960744.980    85830826.21649
  20451067.620   107471140.56009  20451066.960    83743762.41249
  23065746.980   121211335.45508  23065746.080    94450410.40946
 15 02 17 03 22  0.0000000  0  9G01G04G11G16G18G19G22G27G32
  24247053.420   127419140.05007  24247056.440    99287651.50944
  21835644.180   114747154.81009  21835642.900    89413388.82147
  23333585.380   122618848.93408  23333583.120    95547154.09645
  21548451.580   113237890.25709  21548448.720    88237303.22748
  23298598.020   122435027.44908  23298594.880    95403932.94746
  21101031.980   110886708.35809  21101027.340    86405225.86348
  20965244.800   110173175.68809  20965239.520    85849230.57348
  20450293.560   107467073.04409  20450292.900    83740592.91749
  23044447.100   121099403.68008  23044446.040    94363190.87346
 15 02 17 03 22 30.0000000  0  9G01G04G11G16G18G19G22G27G32
  24232079.160   127340450.29307  24232082.160    99226334.86445
  21824078.080   114686374.41009  21824076.740    89366027.49347
  23318315.160   122538603.41008  23318312.820    95484625.16845
  21563031.260   113314507.42909  21563028.580    88297004.89048
  23312999.560   122510707.71908  23312996.420    95462904.56746
  21092842.140   110843670.42209  21092837.500    86371689.81348
  20969835.780   110197301.35109  20969830.520    85868029.79548
  20449580.420   107463325.69209  20449579.840    83737672.89449
  23023183.380   120987661.78308  23023182.280    94276119.27746
 15 02 17 03 23  0.0000000  0  9G01G04G11G16G18G19G22G27G32
  24217134.400   127261914.92807  24217137.240    99165138.52345
  21812561.560   114625854.59709  21812560.140    89318869.22048
  23303067.100   122458473.96708  23303064.780    95422186.67046
  21577688.120   113391529.75909  21577685.500    88357022.28048
  23327453.340   122586662.73808  23327450.200    95522090.27646
  21084694.420   110800853.94809  21084689.800    86338326.32948
  20974523.260   110221934.37709  20974518.040    85887224.36049
  20448928.780   107459901.46609  20448928.200    83735004.65749
  23001956.740   120876114.57708  23001955.560    94189199.39746
 15 02 17 03 23 30.0000000  0  9G01G04G11G16G18G19G22G27G32
  24202218.260   127183530.33807  24202221.060    99104059.66745
  21801093.940   114565591.95509  21801092.540    89271911.34347
  23287840.400   122378457.19008  23287838.080    95359835.97745
  21592420.820   113468950.59109  21592418.260    88417350.17848
  23341958.300   122662886.62509  23341955.100    95581485.49446
  21076588.400   110758256.49709  21076583.800    86305133.51649
  20979306.440   110247070.21309  20979301.240    85906810.73249
  20448338.140   107456797.68709  20448337.600    83732586.12849
  22980766.940   120764761.04808  22980765.600    94102430.44246
 15 02 17 03 24  0.0000000  0  9G01G04G11G16G18G19G22G27G32
  24187331.780   127105301.32907  24187334.600    99043102.05145
  21789676.140   114505591.28209  21789674.760    89225157.59547
  23272636.040   122298558.02808  23272633.740    95297576.93245
  21607229.880   113546772.10909  21607227.240    88477990.31048
  23356514.900   122739381.80708  23356511.540    95641092.11746
  21068525.140   110715883.86609  21068520.580    86272115.87748
  20984185.980   110272712.39509  20984180.780    85926791.66348
  20447809.620   107454020.11209  20447809.040    83730421.77649
  22959615.360   120653608.59808  22959614.000    94015818.16446
 15 02 17 03 24 30.0000000  0  9G01G04G11G16G18G19G22G27G32
  24172474.540   127027226.07107  24172477.360    98982264.24145
  21778307.780   114445849.99209  21778306.440    89178605.96548
  23257453.760   122218774.90208  23257451.520    95235408.31846
  21622114.340   113624989.85409  21622111.560    88538939.19248
  23371122.400   122816144.77908  23371118.960    95700907.39846
  21060504.500   110673735.08209  21060499.960    86239272.67149
  20989161.180   110298857.33409  20989156.000    85947164.34748
  20447342.980   107451567.86009  20447342.460    83728510.92249
  22938502.200   120542658.16708  22938500.780    93929363.29046
 15 02 17 03 25  0.0000000  0  9G01G04G11G16G18G19G22G27G32
  24157647.280   126949308.37307  24157650.160    98921549.17846
  21766989.560   114386372.15509  21766988.220    89132259.62147
  23242294.280   122139111.64108  23242292.160    95173333.08745
  21637074.560   113703606.00409  21637071.720    88600198.51648
  23385780.960   122893176.10308  23385777.480    95760931.78946
  21052527.460   110631815.46109  21052522.960    86206608.03448
  20994232.560   110325507.73909  20994227.380    85967930.89748
  20446939.140   107449445.67709  20446938.620    83726857.27749
  22917428.660   120431916.18008  22917427.240    93843070.88246
 15 02 17 03 25 30.0000000  0 10G01G04G11G14G16G18G19G22G27G32
  24142848.100   126871538.23308  24142850.980    98860949.10646
  21755719.560   114327147.69309  21755718.060    89086110.71847
  23227155.800   122059558.40708  23227153.680    95111343.59346
  24695712.120   129776842.81808  24695710.340   101124803.70044
  21652108.060   113782607.45709  21652105.160    88661758.06848
  23400488.340   122970463.91409  23400484.860    95821156.03346
  21044592.360   110590116.16909  21044587.880    86174115.07448
  20999398.020   110352652.42509  20999392.860    85989082.60048
  20446596.400   107447644.57109  20446595.880    83725453.80649
  22896393.380   120321375.32908  22896391.980    93756935.18746
 15 02 17 03 26  0.0000000  0 10G01G04G11G14G16G18G19G22G27G32
  24128079.280   126793927.42908  24128082.120    98800473.17946
  21744499.960   114268188.12309  21744498.380    89040168.21947
  23212040.620   121980127.60308  23212038.480    95049449.50346
  24682551.100   129707681.44308  24682549.100   101070911.71544
  21667216.660   113862003.56509  21667213.680    88723625.15148
  23415246.380   123048017.78808  23415242.920    95881587.60146
  21036701.620   110548649.96109  21036697.120    86141803.75049
  21004659.460   110380301.77309  21004654.340    86010627.54748
  20446317.200   107446177.21309  20446316.640    83724310.40849
  22875399.120   120211050.05508  22875397.700    93670967.45646
 15 02 17 03 26 30.0000000  0 10G01G04G11G14G16G18G19G22G27G32
  24113339.880   126716471.03308  24113342.540    98740117.56946
  21733329.800   114209488.58909  21733328.220    88994428.35047
  23196947.880   121900814.29308  23196945.560    94987646.96746
  24669400.560   129638575.05708  24669398.420   101017062.59244
  21682398.880   113941786.60909  21682395.900    88785793.74348
  23430053.660   123125830.41808  23430050.200    95942220.80046
  21028854.480   110507412.82009  21028849.920    86109670.91548
  21010015.700   110408449.29609  21010010.600    86032560.68848
  20446100.760   107445039.64809  20446100.200    83723423.99149
  22854445.460   120100938.06808  22854444.000    93585165.91146
 15 02 17 03 27  0.0000000  0 10G01G04G11G14G16G18G19G22G27G32
  24098629.740   126639168.24008  24098632.300    98679881.64846
  21722208.780   114151047.68909  21722207.320    88948890.02148
  23181877.340   121821617.60608  23181874.840    94925935.32646
  24656260.800   129569525.48108  24656258.740   100963257.73544
  21697654.140   114021953.54409  21697651.220    88848261.46848
  23444909.560   123203898.67008  23444906.160    96003053.18846
  21021051.020   110466405.18209  21021046.420    86077716.91549
  21015466.340   110437092.88109  21015461.300    86054880.37548
  20445947.120   107444232.03809  20445946.500    83722794.68949
  22833532.760   119991041.25608  22833531.340    93499532.03446
 15 02 17 03 27 30.0000000  0 10G01G04G11G14G16G18G19G22G27G32
  24083949.000   126562019.93408  24083951.520    98619766.13646
  21711137.220   114092866.47209  21711135.740    88903554.02848
  23166829.200   121742538.76608  23166826.560    94864315.49146
  24643132.500   129500536.14007  24643130.440   100909499.78943
  21712982.140   114102502.70909  21712979.220    88911027.04148
  23459813.820   123282221.20808  23459810.500    96064083.71746
  21013291.660   110425629.14509  21013286.980    86045943.37749
  21021011.240   110466231.64009  21021006.180    86077585.90748
  20445856.600   107443756.15509  20445855.960    83722423.86949
  22812661.740   119881363.25008  22812660.260    93414068.68146
 15 02 17 03 28  0.0000000  0 10G01G04G11G14G16G18G19G22G27G32
  24069298.120   126485028.76108  24069300.600    98559773.06446
  21700115.640   114034947.60209  21700114.020    88858422.47048
  23151804.040   121663580.87508  23151801.400    94802789.89546
  24630016.660   129431612.64006  24630014.400   100855793.07544
  21728382.880   114183434.03609  21728379.980    88974090.39248
  23474766.540   123360798.29808  23474763.300    96125312.59446
  21005577.080   110385088.54309  21005572.380    86014353.30049
  21026650.800   110495867.63909  21026645.700    86100678.89748
  20445829.900   107443615.73509  20445829.280    83722314.44549
  22791833.400   119771909.33508  22791831.860    93328779.91846
 15 02 17 03 28 30.0000000  0 10G01G04G11G14G16G18G19G22G27G32
  24054676.560   126408192.15508  24054679.080    98499900.44346
  21689143.440   113977288.23809  21689141.720    88813493.11548
  23136801.360   121584741.49908  23136798.800    94741356.67246
  24616913.400   129362755.14006  24616911.080   100802137.85643
  21743855.480   114264742.93809  21743852.540    89037447.96848
  23489766.760   123439625.23108  23489763.700    96186736.15546
  20997907.000   110344781.90809  20997902.300    85982945.53349
  21032384.140   110525996.55209  21032378.980    86124155.97248
  20445866.780   107443809.12809  20445866.080    83722465.13949
  22771047.660   119662679.65008  22771046.200    93243665.86546
 15 02 17 03 29  0.0000000  0 10G01G04G11G14G16G18G19G22G27G32
  24040084.560   126331510.77508  24040086.980    98440148.76546
  21678220.680   113919888.87609  21678218.980    88768766.36147
  23121821.480   121506021.45909  23121818.800    94680016.42046
  24603823.280   129293966.79706  24603821.360   100748536.60144
  21759399.420   114346427.03809  21759396.500    89101097.90048
  23504814.280   123518700.48708  23504811.260    96248353.22246
  20990281.760   110304711.11709  20990277.080    85951721.54449
  21038211.080   110556617.41209  21038205.900    86148016.39348
  20445967.480   107444337.89809  20445966.700    83722877.15949
  22750305.200   119553677.60008  22750303.880    93158729.24447
 15 02 17 03 29 30.0000000  0 10G01G04G11G14G16G18G19G22G27G32
  24025521.920   126254983.88208  24025524.400    98380517.47546
  21667347.180   113862748.68409  21667345.620    88724241.56748
  23106864.240   121427420.35908  23106861.440    94618768.85545
  24590746.720   129225249.75706  24590745.120   100694990.86544
  21775014.100   114428482.89809  21775011.320    89165037.51748
  23519908.520   123598021.40908  23519905.520    96310161.71345
  20982701.460   110264876.55309  20982696.760    85920681.62448
  21044131.220   110587727.97109  21044126.040    86172258.39348
  20446132.060   107445202.28809  20446131.200    83723550.71049
  22729606.460   119444905.12909  22729605.220    93073971.48946
 15 02 17 03 30  0.0000000  0 10G01G04G11G14G16G18G19G22G27G32
  24010989.260   126178614.57208  24010991.720    98321008.99646
  21656523.640   113805870.58709  21656522.140    88679920.99848
  23091930.160   121348941.33608  23091927.320    94557616.41746
  24577684.980   129156610.02807  24577683.620   100641505.45544
  21790699.700   114510911.60309  21790697.060    89229267.65248
  23535049.540   123677588.18208  23535046.560    96372161.77446
  20975166.900   110225282.54109  20975162.240    85889829.15349
  21050144.860   110619329.89409  21050139.640    86196883.26648
  20446361.220   107446406.40909  20446360.340    83724488.98149
  22708952.480   119336368.03608  22708951.320    92989397.16147
 15 02 17 03 30 30.0000000  0 10G01G04G11G14G16G18G19G22G27G32
  23996485.680   126102398.19108  23996488.160    98261619.68246
  21645749.080   113749249.77909  21645747.540    88635800.91748
  23077018.500   121270580.28308  23077015.700    94496555.90946
  24564637.700   129088045.79707  24564636.500   100588078.81145
  21806454.800   114593705.41009  21806452.220    89293782.29048
  23550236.060   123757393.94608  23550233.100    96434348.06345
  20967677.500   110185925.74909  20967672.860    85859161.52548
  21056250.920   110651417.62409  21056245.720    86221886.69248
  20446654.280   107447946.55209  20446653.420    83725689.09149
  22688342.940   119228064.33809  22688341.780    92905004.66746
 15 02 17 03 31  0.0000000  0 10G01G04G11G14G16G18G19G22G27G32
  23982012.020   126026339.00708  23982014.520    98202352.89446
  21635024.280   113692890.54009  21635022.640    88591884.65448
  23062130.020   121192341.21608  23062127.240    94435590.45546
  24551606.140   129019563.66208  24551604.880   100534716.12945
  21822279.640   114676865.71509  21822277.100    89358582.50848
  23565468.500   123837440.99008  23565465.540    96496722.36146
  20960234.260   110146811.38509  20960229.640    85828682.80048
  21062449.840   110683993.42909  21062444.660    86247270.44248
  20447012.200   107449827.80509  20447011.380    83727154.99449
  22667779.160   119120000.89209  22667778.000    92820799.37547
 15 02 17 03 31 30.0000000  0 10G01G04G11G14G16G18G19G22G27G32
  23967567.840   125950434.90408  23967570.360    98143206.95046
  21624348.820   113636790.62209  21624347.160    88548170.45048
  23047264.540   121114222.78608  23047261.720    94374718.99046
  24538590.440   128951164.76108  24538589.040   100481418.31146
  21838173.640   114760388.91309  21838170.980    89423665.50648
  23580746.000   123917724.75808  23580743.040    96559281.12646
  20952837.040   110107938.68209  20952832.400    85798392.39048
  21068741.040   110717053.95009  21068735.860    86273031.89448
  20447434.860   107452049.22609  20447434.080    83728885.97449
  22647261.260   119012178.56009  22647260.020    92736781.96947
 15 02 17 03 32  0.0000000  0 10G01G04G11G14G16G18G19G22G27G32
  23953153.760   125874688.89408  23953156.240    98084184.17946
  21613723.220   113580952.91709  21613721.600    88504660.57747
  23032422.540   121036228.16708  23032419.700    94313944.00346
  24525591.560   128882854.32908  24525589.960   100428189.42846
  21854136.700   114844274.92309  21854133.960    89489031.21248
  23596068.720   123998246.24808  23596065.880    96622025.13045
  20945486.620   110069312.00909  20945482.000    85768293.68648
  21075124.780   110750600.79009  21075119.660    86299172.29148
  20447922.960   107454614.73709  20447922.280    83730885.08049
  22626790.280   118904603.03208  22626789.140    92652956.89247
 15 02 17 03 32 30.0000000  0 10G01G04G11G14G16G18G19G22G27G32
  23938768.880   125799095.98908  23938771.340    98025280.71146
  21603146.500   113525372.17509  21603144.940    88461350.93247
  23017603.220   120958352.83708  23017600.420    94253261.97645
  24512609.220   128814631.15408  24512607.460   100375028.53145
  21870167.320   114928516.17709  21870164.600    89554673.72348
  23611435.280   124078998.00008  23611432.440    96684948.56345
  20938182.320   110030927.55309  20938177.660    85738383.72248
  21081599.760   110784627.03709  21081594.660    86325686.25648
  20448475.780   107457520.21009  20448475.200    83733149.08049
  22606365.800   118797271.96209  22606364.740    92569322.32746
 15 02 17 03 33  0.0000000  0 10G01G04G11G14G16G18G19G22G27G32
  23924414.300   125723661.94908  23924416.580    97966500.97346
  21592619.800   113470054.35809  21592618.300    88418246.16148
  23002807.700   120880602.56408  23002805.020    94192677.39646
  24499644.920   128746503.28508  24499643.120   100321941.90446
  21886266.140   115013115.69209  21886263.380    89620595.40948
  23626846.420   124159983.94508  23626843.520    96748054.47845
  20930925.460   109992792.44709  20930920.780    85708668.06548
  21088166.880   110819137.37809  21088161.800    86352577.43448
  20449094.640   107460772.54309  20449094.100    83735683.36849
  22585989.480   118690193.87408  22585988.320    92485884.86447
 15 02 17 03 33 30.0000000  0 10G01G04G11G14G16G18G19G22G27G32
  23910089.240   125648383.46108  23910091.460    97907842.43946
  21582142.420   113414995.71009  21582140.960    88375343.33848
  22988035.540   120802974.76008  22988032.960    94132188.24546
  24486698.640   128678470.16908  24486696.840   100268929.09946
  21902431.980   115098067.59709  21902429.180    89686791.67648
  23642301.020   124241198.07708  23642297.960    96811338.21145
  20923715.620   109954904.27409  20923710.900    85679144.82049
  21094825.160   110854126.72809  21094820.060    86379841.87348
  20449779.080   107464369.29209  20449778.540    83738486.03149
  22565661.200   118583368.07109  22565660.020    92402643.98546
 15 02 17 03 34  0.0000000  0 10G01G04G11G14G16G18G19G22G27G32
  23895793.820   125573260.71108  23895796.060    97849305.26646
  21571714.340   113360196.38409  21571712.960    88332642.59748
  22973286.700   120725469.42108  22973284.200    94071794.51446
  24473770.920   128610534.66508  24473769.100   100215992.36345
  21918664.440   115183369.48209  21918661.580    89753260.66348
  23657798.680   124322638.64108  23657795.600    96874798.37945
  20916553.060   109917264.74609  20916548.360    85649815.32649
  21101574.380   110889593.94309  21101569.240    86407478.66848
  20450529.300   107468311.57209  20450528.720    83741557.93449
  22545381.440   118476797.44408  22545380.320    92319601.94047
 15 02 17 03 34 30.0000000  0 10G01G04G11G14G16G18G19G22G27G32
  23881528.460   125498295.86708  23881530.640    97790891.14146
  21561336.080   113305658.37209  21561334.680    88290145.45848
  22958561.720   120648089.32108  22958559.220    94011498.37346
  24460862.780   128542702.07607  24460861.000   100163135.83145
  21934963.480   115269021.28409  21934960.620    89820002.30848
  23673339.440   124404305.68908  23673336.340    96938435.03546
  20909438.420   109879877.17609  20909433.760    85620682.16149
  21108414.660   110925539.59709  21108409.420    86435488.28348
  20451345.880   107472602.51409  20451345.240    83744901.53549
  22525151.160   118370486.96008  22525150.100    92236762.60147
 15 02 17 03 35  0.0000000  0 10G01G04G11G14G16G18G19G22G27G32
  23867292.600   125423485.87308  23867294.720    97732597.69746
  21551007.000   113251378.52809  21551005.500    88247849.49548
  22943860.040   120570831.68708  22943857.520    93951297.66046
  24447974.000   128474972.06007  24447972.260   100110359.21144
  21951327.940   115355016.91809  21951325.060    89887011.87748
  23688922.300   124486193.95308  23688919.220    97002244.05845
  20902371.400   109842739.78809  20902366.740    85591743.93648
  21115345.060   110961958.86109  21115339.740    86463866.93248
  20452228.400   107477240.00609  20452227.740    83748515.16349
  22504970.420   118264436.21109  22504969.340    92154125.65447
 15 02 17 03 35 30.0000000  0 10G01G04G11G14G16G18G19G22G27G32
  23853086.800   125348833.84308  23853088.880    97674427.33546
  21540727.620   113197359.97409  21540726.120    88205757.13647
  22929182.300   120493699.85008  22929179.840    93891194.98346
  24435105.880   128407350.41607  24435104.320   100057667.04044
  21967757.920   115441357.03809  21967755.040    89954289.87648
  23704547.380   124568304.05608  23704544.320    97066225.95645
  20895352.820   109805856.98009  20895348.160    85563004.09649
  21122365.820   110998853.29009  21122360.520    86492615.84848
  20453177.620   107482228.12809  20453176.980    83752402.01749
  22484840.240   118158651.04609  22484839.060    92071695.64447
 15 02 17 03 36  0.0000000  0 10G01G04G11G14G16G18G19G22G27G32
  23838910.760   125274338.50508  23838912.840    97616379.08146
  21530497.660   113143601.07409  21530496.140    88163867.10348
  22914528.240   120416692.64208  22914525.840    93831189.41746
  24422258.720   128339838.76507  24422256.880   100005060.56744
  21984252.700   115528037.47609  21984249.820    90021833.05648
  23720213.980   124650632.37108  23720210.860    97130377.88245
  20888382.660   109769228.57409  20888378.000    85534462.49349
  21129476.480   111036219.98209  21129471.160    86521732.76348
  20454193.480   107487566.39509  20454192.780    83756561.69849
  22464760.860   118053132.80309  22464759.620    91989473.62247
 15 02 17 03 36 30.0000000  0 10G01G04G11G14G16G18G19G22G27G32
  23824764.480   125199999.45208  23824766.480    97558452.60546
  21520317.060   113090101.54709  21520315.440    88122179.17048
  22899898.020   120339810.55308  22899895.620    93771281.33746
  24409433.000   128272439.75607  24409430.700    99952541.89344
  22000811.740   115615055.66109  22000808.780    90089639.41848
  23735921.680   124733176.82308  23735918.580    97194698.22445
  20881461.100   109732855.72509  20881456.460    85506120.02149
  21136676.740   111074057.32209  21136671.380    86551216.41448
  20455276.120   107493255.62809  20455275.360    83760994.86249
  22444732.720   117947884.02309  22444731.440    91907461.56947
 15 02 17 03 37  0.0000000  0 10G01G04G11G14G16G18G19G22G27G32
  23810648.020   125125817.06408  23810649.960    97500648.20247
  21510185.860   113036861.61609  21510184.180    88080693.53048
  22885291.720   120263054.12308  22885289.360    93711471.17146
  24396629.340   128205156.53607  24396626.740    99900113.43043
  22017434.560   115702408.97809  22017431.520    90157706.91348
  23751670.080   124815935.26308  23751667.040    97259185.31245
  20874588.480   109696740.10709  20874583.900    85477977.98849
  21143966.320   111112364.07709  21143960.940    86581065.83948
  20456425.780   107499297.07409  20456424.980    83765702.47349
  22424756.500   117842907.86309  22424755.180    91825661.96047
 15 02 17 03 37 30.0000000  0 10G01G04G11G14G16G18G19G22G27G32
  23796561.380   125051791.43908  23796563.300    97442965.96346
  21500104.060   112983881.20209  21500102.360    88039410.11148
  22870709.340   120186423.47208  22870706.940    93651759.02746
  24383848.320   128137991.90207  24383845.720    99847777.37444
  22034120.600   115790094.83309  22034117.660    90226033.53348
  23767458.800   124898905.72808  23767455.740    97323837.61645
  20867765.080   109660882.95909  20867760.480    85450037.36149
  21151344.820   111151138.22709  21151339.400    86611279.47348
  20457642.640   107505691.69309  20457641.840    83770685.29249
  22404832.640   117738206.94109  22404831.320    91744076.85247
 15 02 17 03 38  0.0000000  0 10G01G04G11G14G16G18G19G22G27G32
  23782504.700   124977923.56808  23782506.720    97385406.65246
  21490071.760   112931161.16309  21490070.060    87998329.56948
  22856151.280   120109920.26908  22856148.780    93592146.19046
  24371090.700   128070949.94107  24371088.280    99795536.85244
  22050869.660   115878111.97209  22050866.760    90294618.29148
  23783287.620   124982086.98308  23783284.600    97388654.16445
  20860991.300   109625286.58109  20860986.720    85422299.92948
  21158812.180   111190379.53209  21158806.800    86641857.12148
  20458927.040   107512441.48409  20458926.300    83775944.86249
  22384961.860   117633785.13509  22384960.500    91662709.26847
 15 02 17 03 38 30.0000000  0 10G01G04G11G14G16G18G19G22G27G32
  23768477.960   124904213.58208  23768480.140    97327970.40646
  21480088.980   112878701.49709  21480087.280    87957451.92148
  22841617.600   120033545.05808  22841615.060    93532633.09046
  24358356.940   128004033.42807  24358354.920    99743394.10545
  22067681.260   115966457.49409  22067678.400    90363458.93848
  23799156.180   125065477.26208  23799153.320    97453633.59845
  20854267.500   109589952.74709  20854262.940    85394767.08449
  21166368.100   111230086.42509  21166362.780    86672797.56748
  20460279.240   107519547.46109  20460278.560    83781481.99749
  22365144.660   117529645.07009  22365143.260    91581561.19647
 15 02 17 03 39  0.0000000  0 10G01G04G11G14G16G18G19G22G27G32
  23754480.640   124830657.82808  23754482.700    97270654.30646
  21470155.020   112826498.33209  21470153.320    87916774.15148
  22827107.640   119957294.44008  22827105.000    93473217.07646
  24345646.960   127937241.89307  24345645.020    99691348.74345
  22084554.260   116055125.64209  22084551.440    90432550.98348
  23815063.360   125149070.24608  23815060.620    97518770.99745
  20847593.200   109554878.97709  20847588.660    85367436.87849
  21174011.580   111270253.39909  21174006.320    86704096.51448
  20461698.720   107527006.94709  20461698.080    83787294.57349
  22345380.820   117425785.83109  22345379.540    91500631.92147
 15 02 17 03 39 30.0000000  0 10G01G04G11G14G16G18G19G22G27G32
  23740513.800   124757261.82508  23740515.740    97213462.68746
  21460270.940   112774557.33809  21460269.280    87876300.67448
  22812622.460   119881174.20108  22812619.760    93413902.63846
  24332962.280   127870583.48607  24332960.440    99639407.12745
  22101489.080   116144118.76409  22101486.280    90501896.24848
  23831009.860   125232869.64608  23831007.140    97584069.21445
  20840969.660   109520071.90509  20840965.120    85340314.49349
  21181743.460   111310884.85009  21181738.220    86735757.38748
  20463186.760   107534826.37409  20463186.080    83793387.63149
  22325672.060   117322215.70309  22325670.800    91419927.89747
 15 02 17 03 40  0.0000000  0 10G01G04G11G14G16G18G19G22G27G32
  23726576.300   124684020.11808  23726578.260    97156391.28646
  21450435.620   112722872.80809  21450434.060    87836027.04148
  22798161.140   119805179.46708  22798158.320    93354686.01746
  24320302.500   127804055.73307  24320300.580    99587567.36644
  22118484.320   116233429.12209  22118481.500    90571488.71648
  23846994.180   125316867.76208  23846991.400    97649522.30545
  20834396.120   109485527.71909  20834391.560    85313396.95149
  21189562.280   111351973.29409  21189557.100    86767774.36748
  20464742.440   107543001.27809  20464741.740    83799757.68649
  22306017.840   117218932.05409  22306016.520    91339447.11547
 15 02 17 03 40 30.0000000  0 10G01G04G11G14G16G18G19G22G27G32
  23712669.040   124610937.07808  23712670.900    97099443.53346
  21440649.940   112671448.92809  21440648.420    87795956.50148
  22783724.520   119729314.96108  22783721.700    93295570.85346
  24307668.980   127737665.94308  24307666.820    99535835.08944
  22135540.220   116323058.43109  22135537.460    90641329.71848
  23863016.780   125401066.73808  23863013.940    97715131.90245
  20827873.600   109451251.74009  20827869.020    85286688.40649
  21197468.600   111393521.51209  21197463.460    86800149.61248
  20466366.760   107551536.95409  20466366.020    83806408.86649
  22286419.460   117115941.95809  22286418.140    91259195.08647
 15 02 17 03 41  0.0000000  0 10G01G04G11G14G16G18G19G22G27G32
  23698791.600   124538010.97308  23698793.440    97042618.03546
  21430913.620   112620284.10809  21430912.020    87756087.82348
  22769312.400   119653579.50208  22769309.740    93236556.27546
  24295061.920   127671415.29807  24295059.920    99484211.23145
  22152655.980   116413002.13409  22152653.200    90711415.69948
  23879076.860   125485462.54208  23879073.820    97780894.86045
  20821402.060   109417243.64909  20821397.460    85260188.60249
  21205461.760   111435526.10409  21205456.640    86832880.47148
  20468059.520   107560432.55109  20468058.800    83813340.49349
  22266877.100   117013246.33209  22266875.800    91179172.48947
 15 02 17 03 41 30.0000000  0 10G01G04G11G14G16G18G19G22G27G32
  23684944.080   124465241.74608  23684945.820    96985914.79046
  21421226.520   112569378.02009  21421224.840    87716420.76448
  22754924.840   119577973.02908  22754922.380    93177642.20046
  24282481.780   127605306.41408  24282479.900    99432697.84345
  22169831.000   116503257.37009  22169828.180    90781744.43548
  23895174.060   125570053.54508  23895170.940    97846809.93945
  20814981.880   109383505.30709  20814977.220    85233898.99749
  21213541.500   111477985.33709  21213536.340    86865965.59248
  20469820.920   107569688.95009  20469820.220    83820553.27449
  22247391.300   116910847.83209  22247389.940    91099381.42247
 15 02 17 03 42  0.0000000  0 10G01G04G11G14G16G18G19G22G27G32
  23671126.640   124392630.82408  23671128.340    96929334.90246
  21411588.900   112518731.90109  21411587.200    87676956.28048
  22740562.280   119502497.67708  22740559.900    93118830.29046
  24269929.540   127539343.67408  24269927.700    99381298.30545
  22187065.100   116593822.87509  22187062.280    90852314.94248
  23911308.180   125654838.69708  23911305.080    97912876.29144
  20808613.480   109350038.94809  20808608.760    85207821.32049
  21221707.640   111520898.71609  21221702.480    86899404.60148
  20471651.440   107579308.47309  20471650.760    83828049.00949
  22227962.860   116808750.55209  22227961.580    91019825.08647
 15 02 17 03 42 30.0000000  0 10G01G04G11G14G16G18G19G22G27G32
  23657339.060   124320176.96708  23657340.800    96872877.40246
  21402000.540   112468344.51909  21401998.800    87637693.40948
  22726224.520   119427152.77308  22726222.100    93060120.01646
  24257405.480   127473528.80308  24257403.620    99330013.99445
  22204357.520   116684694.71409  22204354.620    90923124.14048
  23927478.560   125739814.62808  23927475.520    97979091.30045
  20802296.860   109316844.72009  20802292.100    85181955.70049
  21229959.760   111564263.84209  21229954.620    86933195.61448
  20473551.060   107589290.83909  20473550.380    83835827.47449
  22208592.040   116706956.07209  22208590.860    90940504.70147
 15 02 17 03 43  0.0000000  0 10G01G04G11G14G16G18G19G22G27G32
  23643581.280   124247879.91008  23643583.040    96816542.09546
  21392461.300   112418215.39809  21392459.540    87598631.77748
  22711911.560   119351938.13908  22711909.140    93001511.26046
  24244910.040   127407864.58108  24244908.020    99278847.06245
  22221707.800   116775870.78009  22221704.780    90994170.41548
  23943684.740   125824978.62608  23943681.800    98045452.86745
  20796032.200   109283923.83009  20796027.480    85156303.06549
  21238297.400   111608078.35709  21238292.280    86967336.79648
  20475519.800   107599636.67209  20475519.160    83843889.14949
  22189279.340   116605466.78009  22189278.120    90861422.12047
 15 02 17 03 43 30.0000000  0 10G01G04G11G14G16G18G19G22G27G32
  23629853.200   124175739.04908  23629855.060    96760328.48846
  21382971.100   112368343.92409  21382969.280    87559770.90548
  22697623.420   119276853.69508  22697620.940    92943003.95046
  24232443.680   127342353.15208  24232441.620    99227799.20545
  22239115.220   116867347.45309  22239112.280    91065450.91348
  23959926.320   125910328.63708  23959923.260    98111959.36945
  20789819.640   109251276.74109  20789814.920    85130863.77949
  21246720.100   111652339.97609  21246715.020    87001826.37448
  20477557.760   107610346.27609  20477557.140    83852234.29849
  22170025.080   116504284.80609  22170023.860    90782579.01547
 15 02 17 03 44  0.0000000  0 10G01G04G11G14G16G18G19G22G27G32
  23616155.380   124103757.06308  23616157.360    96704238.69646
  21373530.340   112318732.56609  21373528.520    87521112.73448
  22683360.720   119201902.77708  22683358.080    92884600.68446
  24220007.420   127277000.01408  24220005.360    99176874.70145
  22256579.680   116959124.16709  22256576.840    91136965.21747
  23976203.240   125995864.70408  23976200.220    98178610.85945
  20783660.140   109218908.10909  20783655.380    85105641.48049
  21255228.000   111697049.40809  21255223.000    87036664.90048
  20479665.600   107621423.20009  20479665.020    83860865.67149
  22150830.280   116403415.35709  22150829.040    90703979.44847
 15 02 17 03 44 30.0000000  0 10G01G04G11G14G16G18G19G22G27G32
  23602487.760   124031933.59508  23602489.820    96648272.43746
  21364139.020   112269381.02209  21364137.180    87482657.01148
  22669123.420   119127085.35008  22669120.620    92826301.42146
  24207601.720   127211808.09107  24207599.800    99126075.83345
  22274100.780   117051198.15609  22274097.960    91208711.16647
  23992515.140   126081584.65408  23992512.120    98245405.62845
  20777553.860   109186818.95209  20777549.020    85080636.95549
  21263820.860   111742205.11009  21263815.880    87071851.16448
  20481843.480   107632868.05209  20481842.860    83869783.73449
  22131695.480   116302861.11709  22131694.180    90625625.50647
 15 02 17 03 45  0.0000000  0 10G01G04G11G14G16G18G19G22G27G32
  23588849.580   123960264.99508  23588851.680    96592426.83946
  21354796.440   112220285.56709  21354794.600    87444400.82848
  22654910.900   119052398.27108  22654908.080    92768103.74546
  24195226.380   127146776.15007  24195224.480    99075401.62145
  22291677.160   117143563.05809  22291674.400    91280683.79248
  24008860.920   126167482.59108  24008857.940    98312339.07044
  20771500.260   109155006.69309  20771495.380    85055848.18649
  21272497.520   111787801.33209  21272492.520    87107380.68348
  20484090.880   107644678.04309  20484090.180    83878986.31849
  22112620.380   116202620.78509  22112619.060    90547516.16047
 15 02 17 03 45 30.0000000  0 10G01G04G11G14G16G18G19G22G27G32
  23575241.620   123888754.94008  23575243.660    96536704.78846
  21345503.220   112171449.48709  21345501.340    87406346.76948
  22640723.960   118977845.57708  22640721.160    92710010.77746
  24182882.840   127081911.02907  24182881.020    99024857.40845
  22309309.180   117236220.25909  22309306.480    91352884.16547
  24025240.860   126253559.82308  24025237.980    98379412.24545
  20765500.260   109123476.32309  20765495.320    85031279.07449
  21281258.360   111833840.05709  21281253.360    87143255.01848
  20486408.600   107656857.74109  20486407.860    83888476.99449
  22093606.280   116102700.89209  22093604.960    90469656.49347
 15 02 17 03 46  0.0000000  0 10G01G04G11G14G16G18G19G22G27G32
  23561663.300   123817400.87308  23561665.380    96481104.28146
  21336258.880   112122870.42609  21336257.020    87368492.98748
  22626562.120   118903425.07608  22626559.360    92652020.82546
  24170571.180   127017213.30807  24170569.440    98974443.62445
  22326995.760   117329163.86409  22326993.060    91425307.72148
  24041654.160   126339812.07308  24041651.160    98446621.79745
  20759553.620   109092226.63409  20759548.660    85006928.67849
  21290102.600   111880317.07509  21290097.580    87179470.87048
  20488796.320   107669405.46809  20488795.620    83898254.44149
  22074653.100   116003101.50809  22074651.760    90392046.57347
 15 02 17 03 46 30.0000000  0 10G01G04G11G14G16G18G19G22G27G32
  23548115.400   123746206.88008  23548117.580    96425628.51646
  21327064.200   112074552.06909  21327062.340    87330842.34048
  22612426.280   118829141.39008  22612423.620    92594137.47446
  24158292.680   126952689.83607  24158291.260    98924165.62945
  22344737.220   117422395.83609  22344734.520    91497955.94848
  24058101.080   126426241.22108  24058098.100    98513969.19145
  20753661.460   109061263.33509  20753656.500    84982801.43849
  21299030.700   111927234.56509  21299025.640    87216029.95848
  20491255.080   107682326.23609  20491254.360    83908322.56649
  22055762.240   115903829.63209  22055760.920    90314691.89547
 15 02 17 03 47  0.0000000  0 10G01G04G11G14G16G18G19G22G27G32
  23534596.840   123675166.78008  23534599.080    96370272.65146
  21317917.960   112026488.32509  21317916.100    87293390.08848
  22598315.540   118754989.06608  22598312.940    92536356.48846
  24146046.640   126888337.17607  24146045.380    98874020.74645
  22362531.960   117515907.14309  22362529.200    91570821.74647
  24074580.060   126512839.01608  24074577.120    98581447.99745
  20747822.860   109030581.62409  20747817.940    84958893.61549
  21308041.100   111974584.69909  21308036.060    87252926.16248
  20493783.820   107695614.72609  20493783.060    83918677.22949
  22036933.000   115804881.57309  22036931.740    90237589.57947
 15 02 17 03 47 30.0000000  0 10G01G04G11G14G16G18G19G22G27G32
  23521108.740   123604286.38608  23521110.880    96315041.23146
  21308821.240   111978684.75209  21308819.340    87256140.57548
  22584230.980   118680974.24808  22584228.340    92478682.64746
  24133834.800   126824164.13307  24133833.600    98824015.81845
  22380380.520   117609700.89709  22380377.680    91643907.57747
  24091091.880   126599609.62308  24091089.000    98649061.47144
  20742039.280   109000188.61909  20742034.340    84935210.76049
  21317134.640   112022371.54809  21317129.560    87290162.66648
  20496383.820   107709277.55609  20496383.020    83929323.58049
  22018167.020   115706265.76409  22018165.680    90160746.13847
 15 02 17 03 48  0.0000000  0 10G01G04G11G14G16G18G19G22G27G32
  23507649.880   123533559.73608  23507651.920    96259929.60746
  21299772.880   111931135.45109  21299771.020    87219089.20148
  22570171.560   118607091.44508  22570168.900    92421111.66847
  24121656.780   126760167.98008  24121655.480    98774148.70945
  22398281.080   117703768.09209  22398278.160    91717206.42247
  24107634.960   126686544.63608  24107632.160    98716803.04444
  20736309.820   108970079.90109  20736304.780    84911749.42849
  21326309.780   112070587.11109  21326304.680    87327733.23048
  20499054.100   107723309.73009  20499053.280    83940257.73349
  21999463.660   115607978.93109  21999462.300    90084159.00447
 15 02 17 03 48 30.0000000  0 10G01G04G11G14G16G18G19G22G27G32
  23494221.120   123462991.51508  23494223.100    96204941.44646
  21290773.820   111883845.17209  21290771.980    87182239.66548
  22556138.260   118533345.69308  22556135.580    92363647.49346
  24109513.900   126696356.00608  24109512.440    98724425.09245
  22416234.060   117798110.77709  22416231.140    91790719.85647
  24124209.840   126773646.51008  24124206.920    98784674.64244
  20730635.540   108940261.47909  20730630.480    84888514.30049
  21335567.020   112119234.24609  21335561.920    87365640.09348
  20501795.640   107737716.76709  20501794.900    83951483.99449
  21980824.280   115510028.54309  21980823.020    90007834.05548
 15 02 17 03 49  0.0000000  0 10G01G04G11G14G16G18G19G22G27G32
  23480822.340   123392580.99408  23480824.360    96150076.17146
  21281823.860   111836812.70409  21281821.920    87145591.00448
  22542130.980   118459736.85008  22542128.240    92306289.99046
  24097406.520   126632730.55608  24097404.880    98674846.83245
  22434238.920   117892726.10109  22434236.140    91864445.78647
  24140815.940   126860912.59608  24140813.140    98852674.17644
  20725016.620   108910734.28909  20725011.620    84865506.11049
  21344905.920   112168310.72509  21344900.900    87403881.50948
  20504608.480   107752498.79009  20504607.820    83963002.45249
  21962249.260   115412416.59609  21962248.020    89931772.85947
 15 02 17 03 49 30.0000000  0 10G01G04G11G14G16G18G19G22G27G32
  23467453.120   123322325.65808  23467455.200    96095331.82146
  21272922.460   111790035.51009  21272920.520    87109141.27148
  22528149.340   118386263.09608  22528146.580    92249037.76446
  24085334.640   126569291.68608  24085332.560    98625413.95945
  22452294.720   117987608.88009  22452292.080    91938380.28648
  24157452.420   126948338.34107  24157449.760    98920798.15344
  20719452.840   108881496.94009  20719447.940    84842723.76449
  21354325.600   112217811.95309  21354320.680    87442453.88948
  20507492.400   107767654.09409  20507491.780    83974811.77149
  21943738.680   115315143.11209  21943737.420    89855975.43347
 15 02 17 03 50  0.0000000  0 10G01G04G11G14G16G18G19G22G27G32
  23454114.120   123252228.71908  23454116.200    96040710.88046
  21264070.240   111743516.86409  21264068.320    87072893.00248
  22514194.200   118312928.28008  22514191.280    92191893.77646
  24073299.500   126506046.28108  24073297.120    98576131.83344
  22470401.500   118082759.55009  22470398.840    92012523.59347
  24174119.460   127035924.60808  24174116.800    98989047.17844
  20713945.120   108852554.04709  20713940.300    84820170.87149
  21363826.440   112267739.67009  21363821.620    87481358.61348
  20510448.160   107783186.81009  20510447.560    83986915.18649
  21925293.640   115218214.12209  21925292.400    89780446.53847
 15 02 17 03 50 30.0000000  0 10G01G04G11G14G16G18G19G22G27G32
  23440804.820   123182287.98808  23440807.000    95986211.66746
  21255266.720   111697254.35409  21255264.840    87036844.31348
  22500265.080   118239730.40008  22500262.120    92134856.50746
  24061301.220   126442994.75208  24061298.680    98527000.77445
  22488558.220   118178173.31409  22488555.680    92086871.89747
  24190816.400   127123667.62808  24190813.700    99057418.37444
  20708493.360   108823905.05909  20708488.600    84797846.99748
  21373407.720   112318089.65209  21373402.860    87520592.37148
  20513475.500   107799095.54409  20513474.880    83999311.60149
  21906914.260   115121630.11709  21906912.960    89705186.48447
 15 02 17 03 51  0.0000000  0 10G01G04G11G14G16G18G19G22G27G32
  23427525.500   123112505.07708  23427527.660    95931835.43446
  21246512.300   111651249.55809  21246510.400    87000996.44348
  22486362.460   118166671.79908  22486359.500    92077927.77446
  24049340.680   126380141.66708  24049338.160    98478024.33945
  22506764.640   118273848.72809  22506762.260    92161424.07647
  24207543.120   127211566.76408  24207540.400    99125911.21644
  20703098.120   108795552.99709  20703093.380    84775754.49549
  21383069.380   112368861.50309  21383064.400    87560154.85248
  20516574.900   107815382.76209  20516574.280    84012002.93949
  21888601.220   115025394.94409  21888599.880    89630198.18547
 15 02 17 03 51 30.0000000  0 10G01G04G11G14G16G18G19G22G27G32
  23414275.880   123042878.03008  23414277.940    95877580.63747
  21237806.500   111605500.61009  21237804.620    86965347.93248
  22472486.140   118093751.09008  22472483.040    92021106.46846
  24037418.060   126317487.86208  24037415.740    98429203.22045
  22525020.000   118369780.97209  22525017.620    92236176.38547
  24224298.820   127299618.42808  24224296.180    99194522.89844
  20697759.280   108767497.23009  20697754.520    84753892.86249
  21392810.660   112420051.56509  21392805.540    87600043.21348
  20519746.120   107832047.31509  20519745.460    84024988.30349
  21870354.640   114929509.25509  21870353.360    89555482.09248
 15 02 17 03 52  0.0000000  0 10G01G04G11G14G16G18G19G22G27G32
  23401056.300   122973408.92308  23401058.460    95823448.93147
  21229149.720   111560009.21009  21229147.900    86929900.11148
  22458636.560   118020970.91209  22458633.360    91964394.67946
  24025534.320   126255038.37408  24025532.140    98380541.28945
  22543324.200   118465970.10009  22543321.940    92311128.88347
  24241083.500   127387822.47508  24241080.960    99263253.33644
  20692477.580   108739741.47509  20692472.740    84732265.01449
  21402631.600   112471660.23109  21402626.340    87640257.76348
  20522989.700   107849092.10409  20522988.980    84038269.96349
  21852175.600   114833977.95209  21852174.320    89481042.09548
 15 02 17 03 52 30.0000000  0 10G01G04G11G14G16G18G19G22G27G32
  23387866.880   122904098.47608  23387869.260    95769440.85047
  21220542.180   111514776.09009  21220540.300    86894653.53448
  22444813.940   117948332.31209  22444810.660    91907793.19546
  24013690.160   126192796.87508  24013688.020    98332041.43045
  22561676.880   118562413.70909  22561674.760    92386279.72447
  24257896.860   127476177.38608  24257894.140    99332101.31544
  20687253.440   108712287.92209  20687248.540    84710872.63349
  21412531.940   112523686.45909  21412526.600    87680797.68548
  20526305.840   107866518.68709  20526305.160    84051849.10449
  21834064.660   114738804.45109  21834063.460    89406880.89148
 15 02 17 03 53  0.0000000  0 10G01G04G11G14G16G18G19G22G27G32
  23374707.000   122834943.37308  23374709.440    95715553.81647
  21211983.060   111469797.68509  21211981.180    86859605.44248
  22431017.680   117875832.57308  22431014.360    91851299.92746
  24001885.460   126130762.74408  24001883.360    98283703.17745
  22580076.820   118659105.87509  22580074.720    92461624.32747
  24274737.940   127564678.03707  24274735.280    99401062.86744
  20682086.320   108685134.28909  20682081.380    84689713.96649
  21422510.600   112576124.75509  21422505.280    87721658.70448
  20529694.120   107884324.53409  20529693.480    84065723.78849
  21816021.680   114643988.02709  21816020.440    89332997.91248
 15 02 17 03 53 30.0000000  0 10G01G04G11G14G16G18G19G22G27G32
  23361576.520   122765942.52408  23361578.900    95661786.97646
  21203472.180   111425073.26309  21203470.420    86824755.25848
  22417247.760   117803471.32108  22417244.420    91794914.56846
  23990120.600   126068938.30808  23990118.560    98235528.31445
  22598523.300   118756042.58809  22598521.220    92537159.43847
  24291606.180   127653321.39407  24291603.560    99470135.61744
  20676976.340   108658281.15009  20676971.420    84668789.45049
  21432567.120   112628972.32909  21432561.820    87762838.63848
  20533154.500   107902509.39309  20533154.000    84079893.80249
  21798046.940   114549530.27009  21798045.740    89259394.43048
 15 02 17 03 54  0.0000000  0 10G01G04G11G14G16G18G19G22G27G32
  23348475.980   122697098.67708  23348478.260    95608142.47546
  21195010.080   111380605.03209  21195008.420    86790104.70248
  22403504.820   117731251.75708  22403501.520    91738639.60846
  23978396.700   126007329.09008  23978394.580    98187521.13545
  22617016.380   118853224.22709  22617014.260    92612885.50147
  24308501.740   127742108.10107  24308499.080    99539320.05445
  20671924.300   108631732.67909  20671919.420    84648102.34449
  21442701.580   112682229.56509  21442696.300    87804337.79548
  20536687.720   107921076.78409  20536687.260    84094361.89849
  21780141.420   114455436.51409  21780140.260    89186074.59447
 15 02 17 03 54 30.0000000  0 10G01G04G11G14G16G18G19G22G27G32
  23335405.180   122628411.37208  23335407.520    95554619.95746
  21186596.720   111336392.58409  21186595.040    86755653.45148
  22389788.820   117659174.07708  22389785.600    91682475.21546
  23966714.240   125945937.60008  23966712.140    98139683.60545
  22635555.400   118950647.52909  22635553.280    92688799.85047
  24325424.180   127831035.84207  24325421.380    99608614.39644
  20666930.440   108605489.90509  20666925.580    84627653.43149
  21452913.680   112735894.84109  21452908.440    87846154.89148
  20540293.880   107940027.05909  20540293.360    84109128.34149
  21762305.580   114361708.78909  21762304.520    89113039.96848
 15 02 17 03 55  0.0000000  0 10G01G04G11G14G16G18G19G22G27G32
  23322364.200   122559880.35008  23322366.440    95501219.21046
  21178231.960   111292435.59209  21178230.240    86721401.27248
  22376099.940   117587238.80808  22376096.700    91626421.78546
  23955073.660   125884766.33408  23955071.620    98092017.70545
  22654139.800   119048309.48309  22654137.680    92764900.17547
  24342372.960   127920102.03808  24342370.220    99678016.63444
  20661995.020   108579554.11609  20661990.140    84607443.73049
  21463203.020   112789965.64609  21463197.700    87888287.99248
  20543972.980   107959360.69409  20543972.380    84124193.49949
  21744539.960   114268349.61609  21744538.840    89040292.52347
 15 02 17 03 55 30.0000000  0 10G01G04G11G14G16G18G19G22G27G32
  23309353.100   122491506.53708  23309355.280    95447940.97147
  21169915.980   111248734.93809  21169914.260    86687348.82848
  22362438.340   117515447.11708  22362435.160    91570480.23546
  23943475.660   125823819.21507  23943473.740    98044526.47545
  22672769.320   119146208.32209  22672767.160    92841185.08047
  24359347.920   128009305.86307  24359345.220    99747526.10444
  20657118.500   108553927.63109  20657113.580    84587475.04849
  21473569.440   112844441.15609  21473564.020    87930736.44048
  20547725.380   107979079.42409  20547724.660    84139558.73949
  21726845.180   114175362.58809  21726844.020    88967835.17348
 15 02 17 03 56  0.0000000  0 10G01G04G11G14G16G18G19G22G27G32
  23296371.840   122423289.83408  23296373.960    95394785.15247
  21161648.840   111205290.41909  21161647.060    86653495.96948
  22348804.220   117443799.57209  22348801.000    91514651.00746
  23931920.840   125763099.22008  23931919.180    97997212.24645
  22691443.260   119244340.91209  22691441.040    92917652.19147
  24376348.660   128098645.36208  24376346.040    99817141.31344
  20652301.080   108528611.81209  20652296.160    84567748.44949
  21484012.540   112899319.47309  21484007.040    87973498.77148
  20551551.200   107999183.93409  20551550.420    84155224.58649
  21709221.660   114082750.00309  21709220.400    88895669.54548
 15 02 17 03 56 30.0000000  0 10G01G04G11G14G16G18G19G22G27G32
  23283419.940   122355227.04508  23283421.900    95341749.25446
  21153429.800   111162098.74909  21153427.960    86619840.13448
  22335197.100   117372293.86108  22335193.900    91458932.29646
  23920409.300   125702605.90208  23920407.660    97950074.61045
  22710160.640   119342701.95409  22710158.360    92994297.30947
  24393374.200   128188115.21807  24393371.620    99886858.09844
  20647542.400   108503604.78009  20647537.480    84548262.45449
  21494531.280   112954595.28109  21494525.700    88016570.83348
  20555450.000   108019671.77709  20555449.140    84171189.13449
  21691669.280   113990511.37109  21691667.960    88823795.30747
 15 02 17 03 57  0.0000000  0 10G01G04G11G14G16G18G19G22G27G32
  23270498.060   122287321.86308  23270499.940    95288836.17247
  21145259.440   111119163.38309  21145257.600    86586384.04048
  22321617.680   117300934.00208  22321614.640    91403327.24846
  23908942.200   125642345.85908  23908940.500    97903118.75145
  22728921.600   119441292.33409  22728919.380    93071121.12347
  24410424.880   128277717.36507  24410422.320    99956677.96344
  20642843.540   108478911.79709  20642838.520    84529021.17649
  21505126.000   113010270.49509  21505120.300    88059954.12348
  20559422.520   108040547.40109  20559421.640    84187455.85149
  21674189.180   113898652.73609  21674187.800    88752217.17447
 15 02 17 03 57 30.0000000  0 10G01G04G11G14G16G18G19G22G27G32
  23257605.320   122219569.82808  23257607.140    95236042.43247
  21137137.080   111076479.89609  21137135.140    86553124.19448
  22308065.400   117229716.44508  22308062.380    91347833.06646
  23897519.320   125582317.71808  23897517.360    97856343.58245
  22747724.800   119540104.48709  22747722.500    93148117.70847
  24427499.620   128367445.61308  24427496.960   100026596.06844
  20638203.880   108454529.97709  20638198.800    84510022.35449
  21515795.440   113066338.68109  21515789.640    88103643.62048
  20563468.100   108061807.07209  20563467.260    84204021.82549
  21656781.040   113807172.36209  21656779.600    88680933.79248
 15 02 17 03 58  0.0000000  0 10G01G04G11G14G16G18G19G22G27G32
  23244742.440   122151974.74308  23244744.200    95183370.97647
  21129063.380   111034052.21109  21129061.400    86520063.67948
  22294541.000   117158645.26708  22294537.960    91292452.94446
  23886141.740   125522527.98908  23886139.880    97809754.20746
  22766570.460   119639139.73209  22766568.060    93225288.11447
  24444598.600   128457301.10207  24444595.820   100096613.34144
  20633624.340   108430464.37209  20633619.240    84491269.94249
  21526539.980   113122801.59609  21526534.120    88147640.69748
  20567587.600   108083455.33309  20567586.780    84220890.57949
  21639446.000   113716076.45309  21639444.560    88609949.94348
 15 02 17 03 58 30.0000000  0 10G01G04G11G14G16G18G19G22G27G32
  23231909.300   122084535.69608  23231910.960    95130821.12047
  21121038.060   110991879.04109  21121036.100    86487201.49948
  22281044.400   117087720.35308  22281041.460    91237186.80747
  23874809.980   125462979.00708  23874808.280    97763352.45246
  22785457.840   119738394.14309  22785455.380    93302629.26347
  24461721.340   128547281.36707  24461718.540   100166727.82444
  20629105.020   108406715.67609  20629100.020    84472764.48149
  21537359.040   113179656.68709  21537353.240    88191943.37348
  20571780.980   108105491.99809  20571780.200    84238062.01249
  21622184.480   113625366.69009  21622183.060    88539266.95348
 15 02 17 03 59  0.0000000  0 10G01G04G11G14G16G18G19G22G27G32
  23219105.580   122017251.59908  23219107.120    95078391.99447
  21113061.020   110949959.45209  21113059.040    86454536.89448
  22267575.540   117016941.08709  22267572.660    91182034.15746
  23863524.380   125403672.54208  23863522.620    97717139.64545
  22804386.400   119837864.57909  22804383.920    93380138.74347
  24478867.220   128637383.67107  24478864.520   100236937.41943
  20624646.040   108383284.21909  20624641.180    84454506.20549
  21548252.140   113236900.82109  21548246.440    88236549.18848
  20576048.200   108127916.77209  20576047.560    84255535.84549
  21604996.780   113535044.63809  21604995.440    88468886.08647
 15 02 17 03 59 30.0000000  0 10G01G04G11G14G16G18G19G22G27G32
  23206331.740   121950124.78208  23206333.300    95026085.42747
  21105132.640   110908295.35309  21105130.600    86422071.36948
  22254135.040   116946310.59309  22254132.020    91126997.41747
  23852285.880   125344613.73708  23852284.120    97671119.82145
  22823355.900   119937550.14509  22823353.340    93457815.80347
  24496036.320   128727608.06907  24496033.680   100307242.13445
  20620248.240   108360174.02909  20620243.500    84436498.27349
  21559219.320   113294534.24309  21559213.760    88281458.35648
  20580389.900   108150732.63509  20580389.320    84273314.43449
  21587883.760   113445115.05609  21587882.380    88398811.03448
 15 02 17 04 00  0.0000000  0 10G01G04G11G14G16G18G19G22G27G32
  23193587.120   121883151.76408  23193588.700    94973898.71547
  21097252.180   110866883.50809  21097250.180    86389802.41948
  22240722.280   116875826.06909  22240719.300    91072074.45046
  23841094.260   125285801.90808  23841092.520    97625292.46145
  22842365.140   120037444.44609  22842362.500    93535655.53147
  24513227.660   128817949.43307  24513225.120   100377638.00443
  20615911.160   108337382.75309  20615906.460    84418738.84849
  21570259.580   113352551.68109  21570254.160    88326666.74848
  20584805.520   108173936.85709  20584804.920    84291395.64649
  21570845.280   113355576.99209  21570843.820    88329041.04848
 15 02 17 04 00 30.0000000  0 10G01G04G11G14G16G18G19G22G27G32
  23180872.960   121816338.61808  23180874.460    94921836.55646
  21089420.820   110825729.67309  21089418.860    86357734.51448
  22227338.580   116805494.16109  22227335.500    91017270.39147
  23829951.380   125227246.02508  23829949.480    97579664.51045
  22861414.940   120137551.41609  22861412.200    93613660.91147
  24530442.040   128908411.78407  24530439.360   100448128.13344
  20611636.280   108314918.08409  20611631.580    84401233.91449
  21581373.700   113410957.22509  21581368.440    88372177.56148
  20589296.260   108197536.13809  20589295.720    84309784.69449
  21553882.960   113266439.13109  21553881.520    88259582.98747
 15 02 17 04 01  0.0000000  0 10G01G04G11G14G16G18G19G22G27G32
  23168187.160   121749674.36008  23168188.520    94869890.40847
  21081636.540   110784822.96309  21081634.520    86325859.16848
  22213982.020   116735304.80709  22213978.780    90962577.40246
  23818855.800   125168938.28508  23818853.720    97534229.90645
  22880502.600   120237857.36309  22880499.840    93691821.35447
  24547677.040   128998981.82407  24547674.200   100518702.19044
  20607421.780   108292770.35309  20607416.980    84383975.94449
  21592559.260   113469738.02909  21592554.080    88417980.77748
  20593860.220   108221520.25409  20593859.720    84328473.61249
  21536995.100   113177693.03809  21536993.720    88190430.22248
 15 02 17 04 01 30.0000000  0 10G01G04G11G14G16G18G19G22G27G32
  23155531.540   121683168.63108  23155532.820    94818067.80247
  21073901.060   110744172.67309  21073899.000    86294183.64048
  22200654.360   116665268.00409  22200651.260    90908003.29847
  23807809.880   125110891.10508  23807807.840    97488998.32745
  22899629.380   120338369.06809  22899626.640    93770142.15147
  24564934.180   129089668.01308  24564931.080   100589366.73944
  20603269.700   108270950.61809  20603264.780    84366973.55649
  21603817.680   113528901.57009  21603812.520    88464082.24348
  20598499.460   108245899.44909  20598498.940    84347470.38349
  21520184.040   113089350.61809  21520182.740    88121591.99148
 15 02 17 04 02  0.0000000  0 10G01G04G11G14G16G18G19G22G27G32
  23142905.000   121616815.50208  23142906.180    94766364.10147
  21066213.280   110703773.20109  21066211.260    86262703.54248
  22187354.860   116595378.70509  22187351.840    90853544.12447
  23796812.920   125053101.38308  23796810.820    97443967.39145
  22918793.620   120439077.70509  22918790.860    93848616.37747
  24582211.940   129180462.39807  24582208.720   100660115.61444
  20599179.240   108249454.76709  20599174.200    84350223.54449
  21615147.540   113588440.26809  21615142.360    88510476.02648
  20603212.920   108270668.54909  20603212.380    84366770.97049
  21503449.200   113001408.54809  21503447.900    88053065.70547
 15 02 17 04 02 30.0000000  0 10G01G04G11G14G16G18G19G22G27G32
  23130308.220   121550618.82408  23130309.380    94714782.30447
  21058573.920   110663628.15909  21058571.900    86231421.70548
  22174084.280   116525641.17309  22174081.220    90799203.19747
  23785866.160   124995575.92608  23785864.040    97399142.37245
  22937995.620   120539984.76809  22937992.900    93927245.17347
  24599510.600   129271366.83708  24599507.280   100730950.22144
  20595151.320   108228287.94609  20595146.300    84333729.92149
  21626549.080   113648355.78609  21626543.900    88557163.43248
  20608001.420   108295832.00509  20608000.900    84386378.85249
  21486791.740   112913873.16509  21486790.420    87984856.36148
 15 02 17 04 03  0.0000000  0 10G01G04G11G14G16G18G19G22G27G32
  23117740.400   121484574.53708  23117741.560    94663319.25847
  21050982.140   110623733.27709  21050980.100    86200334.79748
  22160841.880   116456052.12509  22160838.840    90744977.99147
  23774969.520   124938313.78608  23774967.400    97354522.52046
  22957234.000   120641083.26608  22957231.420    94006023.14547
  24616829.040   129362375.27807  24616825.400   100801865.90043
  20591185.480   108207447.44809  20591180.480    84317490.57049
  21638021.220   113708642.15709  21638016.000    88604139.81948
  20612864.300   108321386.46509  20612863.780    84406291.40749
  21470211.460   112826743.13709  21470210.100    87916963.01348
 15 02 17 04 03 30.0000000  0 10G01G04G11G14G16G18G19G22G27G32
  23105202.620   121418688.12908  23105203.740    94611979.23947
  21043439.080   110584094.31609  21043437.000    86169447.30748
  22147628.980   116386617.68809  22147625.920    90690873.25647
  23764124.540   124881322.89408  23764122.460    97310114.05445
  22976509.400   120742376.03709  22976506.900    94084952.57347
  24634167.920   129453491.37607  24634164.140   100872865.45343
  20587282.980   108186940.00009  20587278.080    84301510.74749
  21649564.620   113769302.86309  21649559.400    88651407.89748
  20617802.740   108347338.00009  20617802.200    84426513.37749
  21453709.760   112740026.20509  21453708.320    87849391.60347
 15 02 17 04 04  0.0000000  0 10G01G04G11G14G16G18G19G22G27G32
  23092693.940   121352955.05808  23092695.160    94560758.69947
  21035943.800   110544706.50409  21035941.760    86138755.51948
  22134444.820   116317334.37609  22134441.860    90636886.28247
  23753330.840   124824601.75708  23753328.820    97265915.79245
  22995820.440   120843855.97709  22995817.900    94164027.81547
  24651526.000   129544708.71507  24651522.140   100943943.90944
  20583443.340   108166762.95309  20583438.540    84285788.37249
  21661178.140   113830331.79209  21661172.860    88698962.89748
  20622815.980   108373682.76709  20622815.440    84447041.76349
  21437286.120   112653719.94409  21437284.600    87782140.11248
 15 02 17 04 04 30.0000000  0 10G01G04G11G14G16G18G19G22G27G32
  23080214.640   121287376.50408  23080215.900    94509658.58647
  21028496.500   110505570.87509  21028494.540    86108260.24348
  22121289.720   116248203.67009  22121286.640    90583018.22347
  23742589.200   124768154.71808  23742587.220    97221931.10845
  23015166.700   120945521.30409  23015164.180    94243247.55647
  24668903.220   129636027.03007  24668899.480   101015101.03844
  20579667.040   108146918.92209  20579662.340    84270325.49749
  21672861.500   113891727.75609  21672856.140    88746803.91248
  20627904.380   108400422.52709  20627903.820    84467877.94349
  21420941.320   112567828.26009  21420939.880    87715211.69948
 15 02 17 04 05  0.0000000  0 10G01G04G11G14G16G18G19G22G27G32
  23067764.800   121221952.19808  23067765.900    94458678.64047
  21021097.120   110466687.04709  21021095.160    86077961.16848
  22108163.900   116179226.18409  22108160.540    90529269.53647
  23731900.200   124711984.09808  23731898.320    97178161.82145
  23034547.720   121047369.28609  23034545.220    94322609.67547
  24686299.140   129727443.82407  24686295.440   101086334.89743
  20575954.360   108127408.96709  20575949.740    84255122.93549
  21684614.200   113953488.36909  21684608.780    88794929.05548
  20633068.020   108427557.61209  20633067.400    84489022.15549
  21404675.840   112482353.12709  21404674.360    87648607.82648
 15 02 17 04 05 30.0000000  0 10G01G04G11G14G16G18G19G22G27G32
  23055344.540   121156683.27308  23055345.560    94407819.75847
  21013745.880   110428056.12509  21013743.880    86047859.16548
  22095067.500   116110403.88609  22095064.100    90475641.79747
  23721264.620   124656093.96608  23721262.700    97134611.07145
  23053963.180   121149398.48508  23053960.660    94402112.99847
  24703713.660   129818958.44607  24703710.360   101157644.98443
  20572305.820   108108235.86809  20572301.220    84240182.86149
  21696436.080   114015612.90709  21696430.700    88843337.77848
  20638307.260   108455089.82509  20638306.580    84510475.82249
  21388490.300   112397298.20009  21388488.800    87582331.38448
 15 02 17 04 06  0.0000000  0 10G01G04G11G14G16G18G19G22G27G32
  23042952.900   121091565.63508  23042954.040    94357078.77047
  21006441.980   110389674.01909  21006439.940    86017951.04148
  22081999.880   116041733.29709  22081996.580    90422132.26647
  23710682.220   124600483.16508  23710680.260    97091277.96345
  23073411.820   121251601.90908  23073409.300    94481752.10846
  24721145.740   129910565.09407  24721142.480   101229026.78743
  20568720.920   108089396.76809  20568716.260    84225503.04549
  21708326.080   114078095.36609  21708320.740    88892025.39948
  20643621.380   108483015.64609  20643620.660    84532236.19749
  21372384.400   112312661.63609  21372382.900    87516380.91148
 15 02 17 04 06 30.0000000  0 10G01G04G11G14G16G18G19G22G27G32
  23030591.120   121026604.58108  23030592.420    94306459.81447
  20999186.480   110351545.89609  20999184.380    85988240.83448
  22068962.320   115973220.34109  22068958.840    90368745.54747
  23700154.580   124545159.83108  23700152.540    97048168.87545
  23092894.040   121353982.15008  23092891.480    94561528.98646
  24738595.940   130002266.89507  24738592.760   101300482.74843
  20565200.860   108070898.35709  20565196.120    84211088.69949
  21720284.800   114140939.17409  21720279.560    88940994.59448
  20649011.520   108511340.96509  20649010.780    84554307.87549
  21356359.640   112228451.31909  21356358.060    87450762.56648
 15 02 17 04 07  0.0000000  0 10G01G04G11G14G16G18G19G22G27G32
  23018258.480   120961796.06508  23018259.840    94255959.70947
  20991978.540   110313667.65309  20991976.400    85958725.33448
  22055953.980   115904861.63909  22055950.540    90315479.05947
  23689681.400   124490122.60208  23689679.340    97005282.74345
  23112408.600   121456532.33309  23112406.080    94641438.29847
  24756063.160   130094058.18107  24756059.900   101372008.41044
  20561745.120   108052738.21309  20561740.380    84196937.94049
  21732311.100   114204138.19309  21732305.940    88990240.57348
  20654476.940   108540062.25609  20654476.280    84576688.08949
  21340415.700   112144665.62009  21340414.120    87385475.22148
 15 02 17 04 07 30.0000000  0 10G01G04G11G14G16G18G19G22G27G32
  23005955.200   120897141.80608  23005956.440    94205579.77247
  20984818.380   110276040.87409  20984816.220    85929405.77648
  22042975.600   115836659.99709  22042972.260    90262334.93647
  23679263.580   124435376.20208  23679261.460    96962623.20745
  23131955.400   121559251.79708  23131952.820    94721479.49846
  24773547.560   130185939.26307  24773544.380   101443604.04544
  20558354.320   108034919.46309  20558349.620    84183053.19349
  21744405.000   114267691.97209  21744399.820    89039762.98048
  20660018.180   108569181.87709  20660017.560    84599378.69249
  21324553.220   112061308.14009  21324551.560    87320521.37648
 15 02 17 04 08  0.0000000  0 10G01G04G11G14G16G18G19G22G27G32
  22993680.980   120832640.71708  22993682.120    94155319.22947
  20977705.900   110238664.53109  20977703.640    85900281.36848
  22030027.100   115768614.76509  22030023.600    90209312.68647
  23668901.380   124380922.46508  23668899.260    96920191.73245
  23151533.660   121662136.62308  23151531.040    94801649.53946
  24791048.580   130277906.89207  24791045.460   101515267.13343
  20555028.560   108017442.44409  20555023.860    84169434.74149
  21756565.880   114331597.58809  21756560.680    89089559.56448
  20665635.060   108598699.27909  20665634.540    84622379.26849
  21308772.520   111978380.48809  21308770.800    87255902.45948
 15 02 17 04 08 30.0000000  0 10G01G04G11G14G16G18G19G22G27G32
  22981435.500   120768290.36708  22981436.640    94105176.12047
  20970640.540   110201536.02409  20970638.280    85871350.08248
  22017107.920   115700724.29709  22017104.320    90156411.04147
  23658594.800   124326761.60508  23658592.800    96877988.48946
  23171142.480   121765181.71009  23171139.820    94881944.45946
  24808565.240   130369956.73907  24808562.140   101586994.31244
  20551767.660   108000306.06509  20551762.880    84156081.71149
  21768792.820   114395850.34709  21768787.580    89139626.63948
  20671327.340   108628612.52609  20671326.840    84645688.28149
  21293073.600   111895882.55009  21293071.960    87191618.38448
 15 02 17 04 09  0.0000000  0 10G01G04G11G14G16G18G19G22G27G32
  22969219.920   120704096.83208  22969221.080    94055155.21247
  20963623.560   110164661.66909  20963621.360    85842616.83048
  22004219.560   115632995.60809  22004216.080    90103635.45847
  23648345.700   124272902.61308  23648343.820    96836020.46345
  23190782.380   121868389.87609  23190779.700    94962366.43746
  24826098.400   130462093.26007  24826095.180   101658788.96743
  20548573.000   107983517.94309  20548568.200    84143000.06149
  21781086.620   114460454.78909  21781081.420    89189967.75448
  20677096.300   108658928.30509  20677095.720    84669310.95649
  21277458.120   111813822.75109  21277456.440    87127675.70548
 15 02 17 04 09 30.0000000  0 10G01G04G11G14G16G18G19G22G27G32
  22957032.820   120640053.38108  22957034.020    94005251.26347
  20956653.560   110128034.12709  20956651.400    85814075.90348
  21991360.780   115565422.54209  21991357.460    90050981.14147
  23638153.380   124219341.62508  23638151.560    96794284.64146
  23210451.700   121971752.63708  23210449.040    95042908.86947
  24843646.360   130554307.97907  24843643.040   101730644.56541
  20545443.560   107967072.77709  20545438.800    84130185.64649
  21793445.640   114525402.01409  21793440.500    89240575.96748
  20682940.680   108689640.34809  20682940.040    84693242.41249
  21261925.180   111732196.65109  21261923.420    87064070.97548
 15 02 17 04 10  0.0000000  0 10G01G04G11G14G16G18G19G22G27G32
  22944875.000   120576163.76108  22944876.120    93955467.17247
  20949731.280   110091657.49709  20949729.140    85785730.48748
  21978532.420   115498009.69409  21978529.200    89998451.66747
  23628019.000   124166085.04908  23628017.140    96752786.03345
  23230150.500   122075270.46709  23230147.760    95123572.10746
  24861209.500   130646602.87707  24861206.300   101802562.65244
  20542380.380   107950976.02309  20542375.700    84117642.71849
  21805870.140   114590693.54409  21805865.060    89291452.46948
  20688861.300   108720753.02709  20688860.600    84717486.05049
  21246475.980   111651010.32309  21246474.180    87000808.91848
 15 02 17 04 10 30.0000000  0 10G01G04G11G14G16G18G19G22G27G32
  22932746.540   120512427.93408  22932747.540    93905802.91647
  20942856.720   110055531.64209  20942854.660    85757580.47548
  21965734.680   115430757.77809  21965731.540    89946047.59347
  23617943.160   124113135.74808  23617941.100    96711526.84745
  23249878.380   122178940.92609  23249875.620    95204354.26946
  24878787.520   130738976.16806  24878784.140   101874541.85743
  20539383.720   107935228.65209  20539379.080    84105372.04449
  21818359.740   114656327.31809  21818354.740    89342595.65848
  20694858.160   108752266.66109  20694857.440    84742042.11749
  21231110.860   111570266.02509  21231109.060    86937891.31448
 15 02 17 04 11  0.0000000  0 10G01G04G11G14G16G18G19G22G27G32
  22920647.280   120448845.87008  22920648.280    93856258.48247
  20936029.840   110019656.40609  20936027.860    85729625.75748
  21952967.780   115363667.58609  21952964.660    89893769.54047
  23607926.340   124060496.58808  23607924.120    96670509.32546
  23269634.780   122282761.36209  23269631.980    95285253.30246
  24896380.040   130831425.93707  24896376.800   101946580.63043
  20536453.900   107919832.12309  20536449.220    84093374.74749
  21830914.100   114722301.42209  21830909.180    89394004.03848
  20700931.460   108784181.78409  20700930.680    84766911.03449
  21215830.240   111489965.91209  21215828.460    86875319.81848
 15 02 17 04 11 30.0000000  0 10G01G04G11G14G16G18G19G22G27G32
  22908577.000   120385416.59608  22908578.000    93806833.12047
  20929250.480   109984030.65509  20929248.500    85701865.43248
  21940231.700   115296739.10309  21940228.580    89841617.48747
  23597968.900   124008169.37608  23597966.540    96629734.89146
  23289418.940   122386727.92408  23289416.220    95366266.19347
  24913986.520   130923949.45706  24913983.540   102018676.88343
  20533590.940   107904786.95109  20533586.240    84081651.23649
  21843532.700   114788612.91009  21843527.880    89445675.31548
  20707081.040   108816497.93409  20707080.220    84792092.44649
  21200634.380   111410111.42309  21200632.640    86813095.56348
 15 02 17 04 12  0.0000000  0  9G01G04G11G14G16G19G22G27G32
  22896535.620   120322138.69108  22896536.520    93757525.68847
  20922518.380   109948653.24409  20922516.420    85674298.62648
  21927526.180   115229971.12109  21927523.080    89789590.49947
  23588070.940   123956155.38108  23588068.640    96589204.52546
  23309230.040   122490836.08908  23309227.320    95447389.42046
  20530794.860   107890093.33409  20530790.140    84070201.66249
  21856214.940   114855258.18609  21856210.080    89497606.68548
  20713306.700   108849214.10409  20713305.900    84817585.55749
  21185523.480   111330703.18109  21185521.780    86751219.03148
 15 02 17 04 12 30.0000000  0  9G01G04G11G14G16G19G22G27G32
  22884523.280   120259013.24008  22884524.080    93708337.04947
  20915833.640   109913524.84809  20915831.740    85646925.85848
  21914851.560   115163365.59609  21914848.520    89737690.10447
  23578233.280   123904458.45808  23578231.020    96548921.22445
  23329067.900   122595084.81809  23329065.220    95528622.17747
  20528066.120   107875753.63409  20528061.340    84059027.87049
  21868960.540   114922236.41709  21868955.620    89549797.50648
  20719608.760   108882331.84409  20719607.980    84843391.58049
  21170498.180   111251744.64909  21170496.480    86689692.92748
 15 02 17 04 13  0.0000000  0 10G01G03G04G11G14G16G19G22G27G32
  22872539.840   120196039.72708  22872540.600    93659266.82347
  24633372.200   129449248.33706  24633374.460   100869544.78546
  20909196.220   109878645.03609  20909194.360    85619746.78448
  21902208.020   115096923.35209  21902205.020    89685916.95447
  23568456.400   123853080.92708  23568454.120    96508886.78746
  23348931.900   122699470.96808  23348929.300    95609962.00646
  20525404.880   107861768.71109  20525400.040    84048130.52149
  21881769.020   114989545.17609  21881764.060    89602245.87748
  20725987.220   108915851.08809  20725986.540    84869510.46149
  21155558.800   111173237.43609  21155557.000    86628518.48848
 15 02 17 04 13 30.0000000  0 10G01G03G04G11G14G16G19G22G27G32
  22860586.880   120133226.64308  22860587.660    93610321.59947
  24612807.420   129341180.00106  24612809.760   100785335.81946
  20902607.740   109844022.35609  20902605.820    85592768.07448
  21889597.320   115030653.56909  21889594.300    89634278.17047
  23558742.380   123802033.94308  23558740.160    96469109.94346
  23368823.100   122804000.35008  23368820.480    95691413.45846
  20522813.040   107848148.61509  20522808.200    84037517.46249
  21894641.600   115057190.83309  21894636.600    89654956.77148
  20732443.780   108949780.83709  20732443.160    84895949.21249
  21140707.280   111095192.29209  21140705.500    86567704.11348
 15 02 17 04 14  0.0000000  0 10G01G03G04G11G14G16G19G22G27G32
  22848660.720   120070554.04908  22848661.380    93561485.83947
  24592260.360   129233204.24907  24592262.540   100701198.95346
  20896064.420   109809636.85109  20896062.460    85565974.17648
  21877015.760   114964536.77209  21877012.640    89582758.59647
  23549088.040   123751300.49108  23549086.080    96429577.39146
  23388737.240   122908650.24608  23388734.600    95772958.80546
  20520287.080   107834874.60109  20520282.280    84027174.08049
  21907574.040   115125151.41909  21907569.080    89707913.05748
  20738974.740   108984101.52109  20738974.200    84922692.60249
  21125940.260   111017591.36209  21125938.500    86507235.87248
 15 02 17 04 14 30.0000000  0 10G01G03G04G11G14G16G19G22G27G32
  22836763.800   120008035.40008  22836764.380    93512770.04947
  24571734.140   129125336.76607  24571736.000   100617146.41647
  20889568.720   109775501.70909  20889566.740    85539375.37148
  21864466.040   114898587.48009  21864462.900    89531369.55647
  23539496.400   123700896.45008  23539494.580    96390301.51346
  23408676.400   123013431.23408  23408673.720    95854606.31546
  20517829.800   107821961.63809  20517825.020    84017112.01949
  21920568.560   115193438.23509  21920563.680    89761123.55148
  20745582.720   109018827.00809  20745582.300    84949751.41949
  21111260.840   110940450.52609  21111259.100    86447126.14048
 15 02 17 04 15  0.0000000  0 10G01G03G04G11G14G16G19G22G27G32
  22824895.480   119945667.32708  22824896.040    93464171.59647
  24551228.200   129017576.29908  24551229.840   100533177.28547
  20883119.960   109741613.51709  20883118.040    85512969.00048
  21851947.740   114832803.04909  21851944.540    89480108.97147
  23529967.480   123650821.43608  23529965.600    96351282.02746
  23428639.340   123118337.34908  23428636.720    95936351.31446
  20515440.880   107809407.62109  20515436.080    84007329.67649
  21933624.140   115262045.78709  21933619.260    89814583.96848
  20752267.160   109053954.27409  20752266.820    84977123.30349
  21096668.660   110863768.23709  21096666.960    86387373.72148
 15 02 17 04 15 30.0000000  0 10G01G03G04G11G14G16G19G22G27G32
  22813056.040   119883450.89508  22813056.580    93415691.29647
  24530743.060   128909926.10908  24530744.580   100449294.12747
  20876718.420   109707973.17409  20876716.480    85486755.74948
  21839461.140   114767185.47609  21839457.880    89428978.41147
  23520501.940   123601079.34808  23520499.960    96312521.96346
  23448625.820   123223366.92408  23448623.220    96018192.52046
  20513120.780   107797215.26409  20513115.980    83997829.13049
  21946740.600   115330973.26509  21946735.720    89868293.67348
  20759028.360   109089484.86409  20759028.040    85004809.47549
  21082164.420   110787547.91509  21082162.680    86327981.27048
 15 02 17 04 16  0.0000000  0 10G01G03G04G11G14G16G19G22G27G32
  22801245.360   119821385.69108  22801245.900    93367328.83047
  24510279.200   128802387.76508  24510280.540   100365498.04747
  20870364.080   109674580.61609  20870362.100    85460735.58748
  21827006.380   114701735.15809  21827003.060    89377978.17547
  23511100.140   123551672.31708  23511098.100    96274022.99646
  23468635.300   123328517.29308  23468632.700    96100127.84646
  20510869.620   107785385.47009  20510864.860    83988611.11749
  21959917.480   115400218.23109  21959912.640    89922250.77148
  20765866.380   109125418.72609  20765866.040    85032809.88049
  21067748.360   110711791.21609  21067746.660    86268950.09248
 15 02 17 04 16 30.0000000  0 10G01G03G04G11G14G16G19G22G27G32
  22789463.360   119759471.46008  22789463.920    93319084.00747
  24489836.960   128694963.14508  24489838.320   100281790.56346
  20864056.780   109641435.29409  20864054.740    85434908.07148
  21814583.520   114636452.65309  21814580.240    89327108.71147
  23501762.520   123502602.71608  23501760.420    96235786.96045
  23488667.240   123433785.46708  23488664.660    96182154.98146
  20508687.720   107773919.38209  20508682.940    83979676.50249
  21973154.400   115469778.31609  21973149.480    89976453.42348
  20772781.160   109161755.91909  20772780.780    85061124.56649
  21053420.860   110636499.98109  21053419.200    86210281.61348
 15 02 17 04 17  0.0000000  0 10G01G03G04G11G14G16G19G22G27G32
  22777710.280   119697709.26708  22777710.940    93270957.66247
  24469416.900   128587655.44408  24469418.240   100198174.16946
  20857796.700   109608538.27009  20857794.640    85409274.03748
  21802192.920   114571339.68709  21802189.640    89276371.35147
  23492489.780   123453874.49808  23492487.680    96197816.94546
  23508721.220   123539169.42108  23508718.680    96264272.32646
  20506575.520   107762819.34609  20506570.660    83971027.12849
  21986451.140   115539652.66309  21986446.140    90030900.95548
  20779772.980   109198497.89809  20779772.580    85089754.66749
  21039182.520   110561677.39909  21039180.900    86151978.31448
 15 02 17 04 17 30.0000000  0 10G01G03G04G11G14G16G19G22G27G32
  22765985.960   119636098.21208  22765986.820    93222949.09347
  24449019.300   128480465.95008  24449020.660   100114649.87745
  20851583.660   109575888.56909  20851581.620    85383832.71648
  21789834.520   114506396.43009  21789831.360    89225766.24447
  23483282.300   123405489.23208  23483280.280    96160114.15045
  23528796.580   123644665.89208  23528794.080    96346477.34046
  20504533.020   107752085.68109  20504528.120    83962663.23249
  21999807.080   115609838.08109  21999802.000    90085590.87948
  20786841.720   109235644.09109  20786841.280    85118699.75149
  21025033.640   110487324.68509  21025032.040    86094041.14548
 15 02 17 04 18  0.0000000  0 10G01G03G04G11G14G16G19G22G27G32
  22754290.140   119574636.74608  22754291.180    93175057.08147
  24428644.360   128373395.24908  24428645.700   100031218.15445
  20845417.400   109543484.72809  20845415.340    85358582.97348
  21777508.220   114441621.87209  21777505.180    89175292.58547
  23474140.460   123357448.36308  23474138.360    96122679.69246
  23548892.540   123750270.68508  23548890.040    96428766.76946
  20502560.260   107741718.41909  20502555.300    83954584.84749
  22013221.580   115680331.08109  22013216.340    90140520.47348
  20793987.120   109273193.29809  20793986.680    85147958.86549
  21010974.280   110413442.21609  21010972.620    86036470.39748
 15 02 17 04 18 30.0000000  0 10G01G03G04G11G14G16G19G22G27G32
  22742623.120   119513326.40008  22742624.200    93127282.82447
  24408292.620   128266446.85107  24408294.020    99947881.70545
  20839298.160   109511328.02309  20839296.100    85333525.80548
  21765214.520   114377018.68109  21765211.580    89124952.46547
  23465064.960   123309755.94908  23465062.800    96085516.77746
  23569008.780   123855982.30008  23569006.320    96511139.43646
  20500657.680   107731720.36209  20500652.760    83946794.15749
  22026694.560   115751131.46009  22026689.220    90195689.58948
  20801209.580   109311147.34509  20801209.160    85177533.43449
  20997005.140   110340033.68209  20997003.440    85979268.95748
 15 02 17 04 19  0.0000000  0 10G01G03G04G11G14G16G19G22G27G32
  22730984.620   119452165.77508  22730985.680    93079625.23047
  24387964.340   128159621.64907  24387965.760    99864641.27645
  20833225.720   109479417.24309  20833223.660    85308660.26448
  21752953.380   114312586.28409  21752950.500    89074745.42547
  23456055.960   123262413.32408  23456053.880    96048626.44246
  23589144.700   123961797.32208  23589142.260    96593592.67046
  20498825.380   107722091.73409  20498820.460    83939291.33449
  22040225.260   115822235.43209  22040219.880    90251095.28248
  20808508.920   109349505.17509  20808508.500    85207422.65149
  20983126.320   110267099.70409  20983124.560    85922437.30048
